[
  {
    "id": 1,
    "stop_id": "7336",
    "stop_code": "7336",
    "stop_name": "Queens Drive at Sutherland Road",
    "stop_desc": "QueensDr at Sutherland",
    "zone_id": "3",
    "stop_lat": -41.3326276,
    "stop_lon": 174.7908898,
    "location_type": 0,
    "parent_station": "",
    "stop_url": "",
    "stop_timezone": "Pacific/Auckland"
  },
  {
    "id": 2,
    "stop_id": "9008",
    "stop_code": "9008",
    "stop_name": "Cuba Street at Weltec",
    "stop_desc": "CubaSt at Weltec",
    "zone_id": "4",
    "stop_lat": -41.22445726,
    "stop_lon": 174.8863581,
    "location_type": 0,
    "parent_station": "",
    "stop_url": "",
    "stop_timezone": "Pacific/Auckland"
  },
  {
    "id": 3,
    "stop_id": "7037",
    "stop_code": "7037",
    "stop_name": "Broadway at Bentinck Avenue",
    "stop_desc": "Broadway at Bentinck",
    "zone_id": "3",
    "stop_lat": -41.32410641,
    "stop_lon": 174.8230364,
    "location_type": 0,
    "parent_station": "",
    "stop_url": "",
    "stop_timezone": "Pacific/Auckland"
  },
  {
    "id": 4,
    "stop_id": "6032",
    "stop_code": "6032",
    "stop_name": "Hobart Street opposite Kedah Street",
    "stop_desc": "HobartSt opp Kedah",
    "zone_id": "3",
    "stop_lat": -41.32355031,
    "stop_lon": 174.812626,
    "location_type": 0,
    "parent_station": "",
    "stop_url": "",
    "stop_timezone": "Pacific/Auckland"
  },
  {
    "id": 5,
    "stop_id": "4137",
    "stop_code": "4137",
    "stop_name": "Churchill Drive near Bowen Hospital",
    "stop_desc": "ChurchillDr nr Hospital",
    "zone_id": "3",
    "stop_lat": -41.25964154,
    "stop_lon": 174.7662305,
    "location_type": 0,
    "parent_station": "",
    "stop_url": "",
    "stop_timezone": "Pacific/Auckland"
  },
  {
    "id": 6,
    "stop_id": "6954",
    "stop_code": "6954",
    "stop_name": "Buckley Road (near 207)",
    "stop_desc": "BuckleyRd (207)",
    "zone_id": "3",
    "stop_lat": -41.34198154,
    "stop_lon": 174.7801507,
    "location_type": 0,
    "parent_station": "",
    "stop_url": "",
    "stop_timezone": "Pacific/Auckland"
  },
  {
    "id": 7,
    "stop_id": "6927",
    "stop_code": "6927",
    "stop_name": "Hornsey Road opposite Auckland Terrace",
    "stop_desc": "HornseyRd opp Auckland",
    "zone_id": "3",
    "stop_lat": -41.32592897,
    "stop_lon": 174.7872412,
    "location_type": 0,
    "parent_station": "",
    "stop_url": "",
    "stop_timezone": "Pacific/Auckland"
  },
  {
    "id": 8,
    "stop_id": "1942",
    "stop_code": "1942",
    "stop_name": "High Street Masterton (near 125)",
    "stop_desc": "HighSt Masterton (125)",
    "zone_id": "14",
    "stop_lat": -40.96145668,
    "stop_lon": 175.6340767,
    "location_type": 0,
    "parent_station": "",
    "stop_url": "",
    "stop_timezone": "Pacific/Auckland"
  },
  {
    "id": 9,
    "stop_id": "6282",
    "stop_code": "6282",
    "stop_name": "Wilberforce St at Townsend Rd (play area)",
    "stop_desc": "WilberforceSt at Townsend (play area)",
    "zone_id": "3",
    "stop_lat": -41.32084966,
    "stop_lon": 174.82385786,
    "location_type": 0,
    "parent_station": "",
    "stop_url": "",
    "stop_timezone": "Pacific/Auckland"
  },
  {
    "id": 10,
    "stop_id": "5331",
    "stop_code": "5331",
    "stop_name": "Karori Road opposite Karori Park",
    "stop_desc": "KaroriRd opp KaroriPk",
    "zone_id": "3",
    "stop_lat": -41.28718564,
    "stop_lon": 174.7251662,
    "location_type": 0,
    "parent_station": "",
    "stop_url": "",
    "stop_timezone": "Pacific/Auckland"
  },
  {
    "id": 11,
    "stop_id": "2726",
    "stop_code": "2726",
    "stop_name": "Discovery Drive (near 109)",
    "stop_desc": "DiscoveryDr (109)",
    "zone_id": "6",
    "stop_lat": -41.11606233,
    "stop_lon": 174.8995678,
    "location_type": 0,
    "parent_station": "",
    "stop_url": "",
    "stop_timezone": "Pacific/Auckland"
  },
  {
    "id": 12,
    "stop_id": "9213",
    "stop_code": "9213",
    "stop_name": "Major Drive at Taieri Crescent (near 81)",
    "stop_desc": "MajorDr at Taieri (81)",
    "zone_id": "5",
    "stop_lat": -41.18310521,
    "stop_lon": 174.9303571,
    "location_type": 0,
    "parent_station": "",
    "stop_url": "",
    "stop_timezone": "Pacific/Auckland"
  },
  {
    "id": 13,
    "stop_id": "1192",
    "stop_code": "1192",
    "stop_name": "Arawhata Road at Greenwood Place",
    "stop_desc": "ArawhataRd at Greenwood",
    "zone_id": "9",
    "stop_lat": -40.90966691,
    "stop_lon": 175.0026426,
    "location_type": 0,
    "parent_station": "",
    "stop_url": "",
    "stop_timezone": "Pacific/Auckland"
  },
  {
    "id": 14,
    "stop_id": "9411",
    "stop_code": "9411",
    "stop_name": "Sunbrae Drive at Ecclesfield Grove",
    "stop_desc": "SunbraeDr at Ecclesfield",
    "zone_id": "6",
    "stop_lat": -41.15405362,
    "stop_lon": 175.0120906,
    "location_type": 0,
    "parent_station": "",
    "stop_url": "",
    "stop_timezone": "Pacific/Auckland"
  },
  {
    "id": 15,
    "stop_id": "3030",
    "stop_code": "3030",
    "stop_name": "Cortina Avenue (near 20)",
    "stop_desc": "CortinaAve (20)",
    "zone_id": "3",
    "stop_lat": -41.22236186,
    "stop_lon": 174.7977791,
    "location_type": 0,
    "parent_station": "",
    "stop_url": "",
    "stop_timezone": "Pacific/Auckland"
  },
  {
    "id": 16,
    "stop_id": "6222",
    "stop_code": "6222",
    "stop_name": "Wellington Regional Aquatic Centre",
    "stop_desc": "WgtnAquaticCtr",
    "zone_id": "2",
    "stop_lat": -41.31511839,
    "stop_lon": 174.7931581,
    "location_type": 0,
    "parent_station": "",
    "stop_url": "",
    "stop_timezone": "Pacific/Auckland"
  },
  {
    "id": 17,
    "stop_id": "7914",
    "stop_code": "7914",
    "stop_name": "Massey University - Wallace Street (opposite)",
    "stop_desc": "MasseyUni-WallaceSt (opp)",
    "zone_id": "1/2",
    "stop_lat": -41.30190388,
    "stop_lon": 174.7740434,
    "location_type": 0,
    "parent_station": "",
    "stop_url": "",
    "stop_timezone": "Pacific/Auckland"
  },
  {
    "id": 18,
    "stop_id": "5103",
    "stop_code": "5103",
    "stop_name": "St Mary's College - Hill Street (school stop South)",
    "stop_desc": "StMarys-HillSt (sch S)",
    "zone_id": "1",
    "stop_lat": -41.276971,
    "stop_lon": 174.774992,
    "location_type": 0,
    "parent_station": "",
    "stop_url": "",
    "stop_timezone": "Pacific/Auckland"
  },
  {
    "id": 19,
    "stop_id": "8260",
    "stop_code": "8260",
    "stop_name": "Naenae Road at Vogel Street (near 154)",
    "stop_desc": "NaenaeRd at Vogel (154)",
    "zone_id": "5",
    "stop_lat": -41.20226008,
    "stop_lon": 174.9482127,
    "location_type": 0,
    "parent_station": "",
    "stop_url": "",
    "stop_timezone": "Pacific/Auckland"
  },
  {
    "id": 20,
    "stop_id": "8096",
    "stop_code": "8096",
    "stop_name": "Korokoro - Singers Road",
    "stop_desc": "Korokoro-SingersRd",
    "zone_id": "4",
    "stop_lat": -41.22049129,
    "stop_lon": 174.8644133,
    "location_type": 0,
    "parent_station": "",
    "stop_url": "",
    "stop_timezone": "Pacific/Auckland"
  },
  {
    "id": 21,
    "stop_id": "9376",
    "stop_code": "9376",
    "stop_name": "Stokes Valley Road (near 479)",
    "stop_desc": "StokesVlyRd at (479)",
    "zone_id": "6",
    "stop_lat": -41.19049445,
    "stop_lon": 174.9831584,
    "location_type": 0,
    "parent_station": "",
    "stop_url": "",
    "stop_timezone": "Pacific/Auckland"
  },
  {
    "id": 22,
    "stop_id": "8075",
    "stop_code": "8075",
    "stop_name": "Cedar Street near Aspen Grove (hail and ride) (school stop)",
    "stop_desc": "CedarSt nr Aspen (h/r) (sch)",
    "zone_id": "4",
    "stop_lat": -41.206498,
    "stop_lon": 174.881374,
    "location_type": 0,
    "parent_station": "",
    "stop_url": "",
    "stop_timezone": "Pacific/Auckland"
  },
  {
    "id": 23,
    "stop_id": "7051",
    "stop_code": "7051",
    "stop_name": "Breaker Bay Road at Palmer Bay",
    "stop_desc": "BreakerBayRd at PalmerBay",
    "zone_id": "3",
    "stop_lat": -41.34112993,
    "stop_lon": 174.8230332,
    "location_type": 0,
    "parent_station": "",
    "stop_url": "",
    "stop_timezone": "Pacific/Auckland"
  },
  {
    "id": 24,
    "stop_id": "9279",
    "stop_code": "9279",
    "stop_name": "Hay Street at Boyd Grove (near 29)",
    "stop_desc": "HaySt at Boyd (29)",
    "zone_id": "5",
    "stop_lat": -41.20316104,
    "stop_lon": 174.9641013,
    "location_type": 0,
    "parent_station": "",
    "stop_url": "",
    "stop_timezone": "Pacific/Auckland"
  },
  {
    "id": 25,
    "stop_id": "1522",
    "stop_code": "1522",
    "stop_name": "Te Moana Road at Leybourne Avenue (near 382)",
    "stop_desc": "TeMoanaRd at Leybourne (382)",
    "zone_id": "10",
    "stop_lat": -40.87856261,
    "stop_lon": 175.0503614,
    "location_type": 0,
    "parent_station": "",
    "stop_url": "",
    "stop_timezone": "Pacific/Auckland"
  },
  {
    "id": 26,
    "stop_id": "1162",
    "stop_code": "1162",
    "stop_name": "Te Kupe Road at Watson Drive",
    "stop_desc": "TeKupeRd at Watson",
    "zone_id": "9",
    "stop_lat": -40.88029154,
    "stop_lon": 174.9928556,
    "location_type": 0,
    "parent_station": "",
    "stop_url": "",
    "stop_timezone": "Pacific/Auckland"
  },
  {
    "id": 27,
    "stop_id": "6094",
    "stop_code": "6094",
    "stop_name": "Taiaroa Street at Tukanae Street (near 27)",
    "stop_desc": "TaiaroaSt at Tukanae (27)",
    "zone_id": "3",
    "stop_lat": -41.33419252,
    "stop_lon": 174.8174621,
    "location_type": 0,
    "parent_station": "",
    "stop_url": "",
    "stop_timezone": "Pacific/Auckland"
  },
  {
    "id": 28,
    "stop_id": "8018",
    "stop_code": "8018",
    "stop_name": "Jackson Street at Patrick Street",
    "stop_desc": "JacksonSt at Patrick",
    "zone_id": "4",
    "stop_lat": -41.22856148,
    "stop_lon": 174.888743,
    "location_type": 0,
    "parent_station": "",
    "stop_url": "",
    "stop_timezone": "Pacific/Auckland"
  },
  {
    "id": 29,
    "stop_id": "4362",
    "stop_code": "4362",
    "stop_name": "Parklands Drive (near 18)",
    "stop_desc": "ParklandsDr (18)",
    "zone_id": "3",
    "stop_lat": -41.29065352,
    "stop_lon": 174.7260888,
    "location_type": 0,
    "parent_station": "",
    "stop_url": "",
    "stop_timezone": "Pacific/Auckland"
  },
  {
    "id": 30,
    "stop_id": "6771",
    "stop_code": "6771",
    "stop_name": "Mitchell Street at Phoenix Way",
    "stop_desc": "MitchellSt at Pheonix",
    "zone_id": "2",
    "stop_lat": -41.3106127,
    "stop_lon": 174.758272,
    "location_type": 0,
    "parent_station": "",
    "stop_url": "",
    "stop_timezone": "Pacific/Auckland"
  },
  {
    "id": 31,
    "stop_id": "1316",
    "stop_code": "1316",
    "stop_name": "Alexander Road at Ngaio Road",
    "stop_desc": "AlexanderRd at Ngaio",
    "zone_id": "9",
    "stop_lat": -40.91271242,
    "stop_lon": 174.9827867,
    "location_type": 0,
    "parent_station": "",
    "stop_url": "",
    "stop_timezone": "Pacific/Auckland"
  },
  {
    "id": 32,
    "stop_id": "3014",
    "stop_code": "3014",
    "stop_name": "Ohariu Road (near 67)",
    "stop_desc": "OhariuRd (67)",
    "zone_id": "3",
    "stop_lat": -41.21715345,
    "stop_lon": 174.8025273,
    "location_type": 0,
    "parent_station": "",
    "stop_url": "",
    "stop_timezone": "Pacific/Auckland"
  },
  {
    "id": 33,
    "stop_id": "5944",
    "stop_code": "5944",
    "stop_name": "Moana Road opposite Disley Street",
    "stop_desc": "MoanaRd opp Disley",
    "zone_id": "2",
    "stop_lat": -41.29055673,
    "stop_lon": 174.7563002,
    "location_type": 0,
    "parent_station": "",
    "stop_url": "",
    "stop_timezone": "Pacific/Auckland"
  },
  {
    "id": 34,
    "stop_id": "9286",
    "stop_code": "9286",
    "stop_name": "Hewer Crescent (near 67)",
    "stop_desc": "HewerCres (67)",
    "zone_id": "5",
    "stop_lat": -41.1960251,
    "stop_lon": 174.9547057,
    "location_type": 0,
    "parent_station": "",
    "stop_url": "",
    "stop_timezone": "Pacific/Auckland"
  },
  {
    "id": 35,
    "stop_id": "8700",
    "stop_code": "8700",
    "stop_name": "Gracefield Road at Hutt Park Road",
    "stop_desc": "GracefieldRd at HuttPark",
    "zone_id": "4",
    "stop_lat": -41.2413595,
    "stop_lon": 174.91579468,
    "location_type": 0,
    "parent_station": "",
    "stop_url": "",
    "stop_timezone": "Pacific/Auckland"
  },
  {
    "id": 36,
    "stop_id": "6080",
    "stop_code": "6080",
    "stop_name": "Miramar Avenue at Tauhinu Road",
    "stop_desc": "MiramarAve at Tauhinu",
    "zone_id": "3",
    "stop_lat": -41.31498596,
    "stop_lon": 174.8131054,
    "location_type": 0,
    "parent_station": "",
    "stop_url": "",
    "stop_timezone": "Pacific/Auckland"
  },
  {
    "id": 37,
    "stop_id": "1258",
    "stop_code": "1258",
    "stop_name": "Martin Road at Michael Road (near 39)",
    "stop_desc": "MartinRd at Michael (39)",
    "zone_id": "9",
    "stop_lat": -40.88684934,
    "stop_lon": 174.9938833,
    "location_type": 0,
    "parent_station": "",
    "stop_url": "",
    "stop_timezone": "Pacific/Auckland"
  },
  {
    "id": 38,
    "stop_id": "7782",
    "stop_code": "7782",
    "stop_name": "Aro Street at Willis Street",
    "stop_desc": "AroSt at Willis",
    "zone_id": "1",
    "stop_lat": -41.29601676,
    "stop_lon": 174.7703009,
    "location_type": 0,
    "parent_station": "",
    "stop_url": "",
    "stop_timezone": "Pacific/Auckland"
  },
  {
    "id": 39,
    "stop_id": "1530",
    "stop_code": "1530",
    "stop_name": "Te Moana Road at Greenaway Road",
    "stop_desc": "TeMoanaRd at Greenaway",
    "zone_id": "10",
    "stop_lat": -40.87267414,
    "stop_lon": 175.0370079,
    "location_type": 0,
    "parent_station": "",
    "stop_url": "",
    "stop_timezone": "Pacific/Auckland"
  },
  {
    "id": 40,
    "stop_id": "3700",
    "stop_code": "3700",
    "stop_name": "Horokiwi Road at Pinkerton Grove",
    "stop_desc": "HorokiwiRd at Pinkerton",
    "zone_id": "3",
    "stop_lat": -41.22270841,
    "stop_lon": 174.8272553,
    "location_type": 0,
    "parent_station": "",
    "stop_url": "",
    "stop_timezone": "Pacific/Auckland"
  },
  {
    "id": 41,
    "stop_id": "1232",
    "stop_code": "1232",
    "stop_name": "Gray Avenue at Martin Road (near 83)",
    "stop_desc": "GrayAve at Martin (83)",
    "zone_id": "9",
    "stop_lat": -40.88995315,
    "stop_lon": 174.9967065,
    "location_type": 0,
    "parent_station": "",
    "stop_url": "",
    "stop_timezone": "Pacific/Auckland"
  },
  {
    "id": 42,
    "stop_id": "3764",
    "stop_code": "3764",
    "stop_name": "Somes Crescent at Sunhaven Drive (near 44)",
    "stop_desc": "SomesCres at Sunhaven (44)",
    "zone_id": "3",
    "stop_lat": -41.22614008,
    "stop_lon": 174.8323617,
    "location_type": 0,
    "parent_station": "",
    "stop_url": "",
    "stop_timezone": "Pacific/Auckland"
  },
  {
    "id": 43,
    "stop_id": "7296",
    "stop_code": "7296",
    "stop_name": "Beacon Hill - Sidlaw Street",
    "stop_desc": "BeaconHill-SidlawSt",
    "zone_id": "3",
    "stop_lat": -41.33157525,
    "stop_lon": 174.8234837,
    "location_type": 0,
    "parent_station": "",
    "stop_url": "",
    "stop_timezone": "Pacific/Auckland"
  },
  {
    "id": 44,
    "stop_id": "3038",
    "stop_code": "3038",
    "stop_name": "McLintock Street at Meadowcroft Grove",
    "stop_desc": "McLintockSt at Meadowcroft",
    "zone_id": "3",
    "stop_lat": -41.22530621,
    "stop_lon": 174.7938035,
    "location_type": 0,
    "parent_station": "",
    "stop_url": "",
    "stop_timezone": "Pacific/Auckland"
  },
  {
    "id": 45,
    "stop_id": "7287",
    "stop_code": "7287",
    "stop_name": "Beacon Hill Road (near 14)",
    "stop_desc": "BeaconHillRd (14)",
    "zone_id": "3",
    "stop_lat": -41.32383535,
    "stop_lon": 174.82804363,
    "location_type": 0,
    "parent_station": "",
    "stop_url": "",
    "stop_timezone": "Pacific/Auckland"
  },
  {
    "id": 46,
    "stop_id": "2168",
    "stop_code": "2168",
    "stop_name": "Windley School - Mungavin Avenue",
    "stop_desc": "WindleySch-MungavinAve",
    "zone_id": "5",
    "stop_lat": -41.14039569,
    "stop_lon": 174.860117,
    "location_type": 0,
    "parent_station": "",
    "stop_url": "",
    "stop_timezone": "Pacific/Auckland"
  },
  {
    "id": 47,
    "stop_id": "6163",
    "stop_code": "6163",
    "stop_name": "Houghton Bay - The Esplanade (near 86)",
    "stop_desc": "HgtnBay-TheEsp (86)",
    "zone_id": "3",
    "stop_lat": -41.341733,
    "stop_lon": 174.784566,
    "location_type": 0,
    "parent_station": "",
    "stop_url": "",
    "stop_timezone": "Pacific/Auckland"
  },
  {
    "id": 48,
    "stop_id": "1266",
    "stop_code": "1266",
    "stop_name": "Gray Avenue at Eatwell Avenue",
    "stop_desc": "GrayAve at Eatwell",
    "zone_id": "9",
    "stop_lat": -40.89419709,
    "stop_lon": 174.9908989,
    "location_type": 0,
    "parent_station": "",
    "stop_url": "",
    "stop_timezone": "Pacific/Auckland"
  },
  {
    "id": 49,
    "stop_id": "8862",
    "stop_code": "8862",
    "stop_name": "Muritai Road near Makaro Street",
    "stop_desc": "MuritaiRd at Makaro",
    "zone_id": "6",
    "stop_lat": -41.292134,
    "stop_lon": 174.897291,
    "location_type": 0,
    "parent_station": "",
    "stop_url": "",
    "stop_timezone": "Pacific/Auckland"
  },
  {
    "id": 50,
    "stop_id": "9166",
    "stop_code": "9166",
    "stop_name": "Waterloo Road (near 259)",
    "stop_desc": "WaterlooRd (259)",
    "zone_id": "4",
    "stop_lat": -41.21244422,
    "stop_lon": 174.9264484,
    "location_type": 0,
    "parent_station": "",
    "stop_url": "",
    "stop_timezone": "Pacific/Auckland"
  },
  {
    "id": 51,
    "stop_id": "4315",
    "stop_code": "4315",
    "stop_name": "Glenmore Street at Orangi Kaupapa Road",
    "stop_desc": "GlenmoreSt at OrangiKaupapa",
    "zone_id": "2",
    "stop_lat": -41.28344091,
    "stop_lon": 174.7621992,
    "location_type": 0,
    "parent_station": "",
    "stop_url": "",
    "stop_timezone": "Pacific/Auckland"
  },
  {
    "id": 52,
    "stop_id": "3239",
    "stop_code": "3239",
    "stop_name": "Abilene Crescent opposite Furlong Crescent",
    "stop_desc": "AbileneCres opp Furlong",
    "zone_id": "3",
    "stop_lat": -41.20962136,
    "stop_lon": 174.80309166,
    "location_type": 0,
    "parent_station": "",
    "stop_url": "",
    "stop_timezone": "Pacific/Auckland"
  },
  {
    "id": 53,
    "stop_id": "1100",
    "stop_code": "1100",
    "stop_name": "Rimu Road at Civic Centre",
    "stop_desc": "RimuRd at CivicCtr",
    "zone_id": "9",
    "stop_lat": -40.91540812,
    "stop_lon": 175.0040033,
    "location_type": 0,
    "parent_station": "",
    "stop_url": "",
    "stop_timezone": "Pacific/Auckland"
  },
  {
    "id": 54,
    "stop_id": "1915",
    "stop_code": "1915",
    "stop_name": "State Highway 2 at Boundary Road (southbound)",
    "stop_desc": "SH2 at Boundary (Sbound)",
    "zone_id": "11",
    "stop_lat": -41.1198024,
    "stop_lon": 175.3376382,
    "location_type": 0,
    "parent_station": "",
    "stop_url": "",
    "stop_timezone": "Pacific/Auckland"
  },
  {
    "id": 55,
    "stop_id": "9572",
    "stop_code": "9572",
    "stop_name": "Fergusson Rest Home (near 657)",
    "stop_desc": "FergussonRestHome (657)",
    "zone_id": "7",
    "stop_lat": -41.12696656,
    "stop_lon": 175.0515261,
    "location_type": 0,
    "parent_station": "",
    "stop_url": "",
    "stop_timezone": "Pacific/Auckland"
  },
  {
    "id": 56,
    "stop_id": "9137",
    "stop_code": "9137",
    "stop_name": "Viewmont Drive near 5 (school stop)",
    "stop_desc": "ViewmontDr (5) (sch)",
    "zone_id": "4",
    "stop_lat": -41.202405,
    "stop_lon": 174.898853,
    "location_type": 0,
    "parent_station": "",
    "stop_url": "",
    "stop_timezone": "Pacific/Auckland"
  },
  {
    "id": 57,
    "stop_id": "4913",
    "stop_code": "4913",
    "stop_name": "The Terrace at Dalmuir Lane (near 130)",
    "stop_desc": "Terrace at Dalmuir (130)",
    "zone_id": "1",
    "stop_lat": -41.28351574,
    "stop_lon": 174.7744747,
    "location_type": 0,
    "parent_station": "",
    "stop_url": "",
    "stop_timezone": "Pacific/Auckland"
  },
  {
    "id": 58,
    "stop_id": "6951",
    "stop_code": "6951",
    "stop_name": "Buckley Road (near 109)",
    "stop_desc": "BuckleyRd (109)",
    "zone_id": "3",
    "stop_lat": -41.33690719,
    "stop_lon": 174.78293303,
    "location_type": 0,
    "parent_station": "",
    "stop_url": "",
    "stop_timezone": "Pacific/Auckland"
  },
  {
    "id": 59,
    "stop_id": "7133",
    "stop_code": "7133",
    "stop_name": "The Parade (near 206)",
    "stop_desc": "Parade (206)",
    "zone_id": "3",
    "stop_lat": -41.33684747,
    "stop_lon": 174.77276674,
    "location_type": 0,
    "parent_station": "",
    "stop_url": "",
    "stop_timezone": "Pacific/Auckland"
  },
  {
    "id": 60,
    "stop_id": "1330",
    "stop_code": "1330",
    "stop_name": "Teoti Street (near 14)",
    "stop_desc": "TeotiSt (14)",
    "zone_id": "9",
    "stop_lat": -40.90065863,
    "stop_lon": 174.981833,
    "location_type": 0,
    "parent_station": "",
    "stop_url": "",
    "stop_timezone": "Pacific/Auckland"
  },
  {
    "id": 61,
    "stop_id": "7911",
    "stop_code": "7911",
    "stop_name": "Taranaki Street at Vivian Street",
    "stop_desc": "TaranakiSt at Vivian",
    "zone_id": "1",
    "stop_lat": -41.29518976,
    "stop_lon": 174.7772055,
    "location_type": 0,
    "parent_station": "",
    "stop_url": "",
    "stop_timezone": "Pacific/Auckland"
  },
  {
    "id": 62,
    "stop_id": "7268",
    "stop_code": "7268",
    "stop_name": "Nevay Road (opposite 50)",
    "stop_desc": "NevayRd (opp 50)",
    "zone_id": "3",
    "stop_lat": -41.3087063,
    "stop_lon": 174.82858,
    "location_type": 0,
    "parent_station": "",
    "stop_url": "",
    "stop_timezone": "Pacific/Auckland"
  },
  {
    "id": 63,
    "stop_id": "6265",
    "stop_code": "6265",
    "stop_name": "Nevay Road at Glenville Road",
    "stop_desc": "NevayRd at Glenville",
    "zone_id": "3",
    "stop_lat": -41.30180194,
    "stop_lon": 174.8292892,
    "location_type": 0,
    "parent_station": "",
    "stop_url": "",
    "stop_timezone": "Pacific/Auckland"
  },
  {
    "id": 64,
    "stop_id": "2024",
    "stop_code": "2024",
    "stop_name": "Parumoana Street (near 16)",
    "stop_desc": "ParumoanaSt (16)",
    "zone_id": "5",
    "stop_lat": -41.13152418,
    "stop_lon": 174.8404477,
    "location_type": 0,
    "parent_station": "",
    "stop_url": "",
    "stop_timezone": "Pacific/Auckland"
  },
  {
    "id": 65,
    "stop_id": "6214",
    "stop_code": "6214",
    "stop_name": "Pirie Street at Porritt Avenue (near 77)",
    "stop_desc": "PirieSt at Porritt (77)",
    "zone_id": "1",
    "stop_lat": -41.29829421,
    "stop_lon": 174.7861281,
    "location_type": 0,
    "parent_station": "",
    "stop_url": "",
    "stop_timezone": "Pacific/Auckland"
  },
  {
    "id": 66,
    "stop_id": "9358",
    "stop_code": "9358",
    "stop_name": "Hill Road (near 133)",
    "stop_desc": "HillRd (133)",
    "zone_id": "5",
    "stop_lat": -41.18467269,
    "stop_lon": 174.9174072,
    "location_type": 0,
    "parent_station": "",
    "stop_url": "",
    "stop_timezone": "Pacific/Auckland"
  },
  {
    "id": 67,
    "stop_id": "5393",
    "stop_code": "5393",
    "stop_name": "Beauchamp Street (near 76)",
    "stop_desc": "BeauchampSt (76)",
    "zone_id": "3",
    "stop_lat": -41.29027034,
    "stop_lon": 174.7395734,
    "location_type": 0,
    "parent_station": "",
    "stop_url": "",
    "stop_timezone": "Pacific/Auckland"
  },
  {
    "id": 68,
    "stop_id": "1922",
    "stop_code": "1922",
    "stop_name": "Greytown - Main Street (near 73)",
    "stop_desc": "Greytown-MainSt (73)",
    "zone_id": "12",
    "stop_lat": -41.07929591,
    "stop_lon": 175.4617807,
    "location_type": 0,
    "parent_station": "",
    "stop_url": "",
    "stop_timezone": "Pacific/Auckland"
  },
  {
    "id": 69,
    "stop_id": "9848",
    "stop_code": "9848",
    "stop_name": "Muritai Road at Houhere Terrace (near 107)",
    "stop_desc": "MuritaiRd at Houhere (107)",
    "zone_id": "6",
    "stop_lat": -41.28880793,
    "stop_lon": 174.9003917,
    "location_type": 0,
    "parent_station": "",
    "stop_url": "",
    "stop_timezone": "Pacific/Auckland"
  },
  {
    "id": 70,
    "stop_id": "7720",
    "stop_code": "7720",
    "stop_name": "Brooklyn - Stop B",
    "stop_desc": "Brooklyn-B",
    "zone_id": "2",
    "stop_lat": -41.30514192,
    "stop_lon": 174.76534143,
    "location_type": 0,
    "parent_station": "",
    "stop_url": "",
    "stop_timezone": "Pacific/Auckland"
  },
  {
    "id": 71,
    "stop_id": "6267",
    "stop_code": "6267",
    "stop_name": "Nevay Road (near 94)",
    "stop_desc": "NevayRd (94)",
    "zone_id": "3",
    "stop_lat": -41.30644223,
    "stop_lon": 174.8293529,
    "location_type": 0,
    "parent_station": "",
    "stop_url": "",
    "stop_timezone": "Pacific/Auckland"
  },
  {
    "id": 72,
    "stop_id": "4396",
    "stop_code": "4396",
    "stop_name": "Karori Mall - Beauchamp Street (Recreation Centre)",
    "stop_desc": "KaroriMall-BeauchampSt (RecCtr)",
    "zone_id": "3",
    "stop_lat": -41.28530028,
    "stop_lon": 174.73724338,
    "location_type": 0,
    "parent_station": "",
    "stop_url": "",
    "stop_timezone": "Pacific/Auckland"
  },
  {
    "id": 73,
    "stop_id": "8315",
    "stop_code": "8315",
    "stop_name": "Logie Street (near 39)",
    "stop_desc": "LogieSt (39)",
    "zone_id": "6",
    "stop_lat": -41.17436569,
    "stop_lon": 174.9782609,
    "location_type": 0,
    "parent_station": "",
    "stop_url": "",
    "stop_timezone": "Pacific/Auckland"
  },
  {
    "id": 74,
    "stop_id": "8201",
    "stop_code": "8201",
    "stop_name": "Oxford Terrace at Epuni Station",
    "stop_desc": "OxfordTce-EpuniStn",
    "zone_id": "4/5",
    "stop_lat": -41.20811,
    "stop_lon": 174.92904,
    "location_type": 0,
    "parent_station": "",
    "stop_url": "",
    "stop_timezone": "Pacific/Auckland"
  },
  {
    "id": 75,
    "stop_id": "6218",
    "stop_code": "6218",
    "stop_name": "Moxham Avenue at Raupo Street (near 87)",
    "stop_desc": "MoxhamAve at Raupo (87)",
    "zone_id": "2",
    "stop_lat": -41.30749464,
    "stop_lon": 174.7930105,
    "location_type": 0,
    "parent_station": "",
    "stop_url": "",
    "stop_timezone": "Pacific/Auckland"
  },
  {
    "id": 76,
    "stop_id": "8579",
    "stop_code": "8579",
    "stop_name": "Upper Hutt Station - Stop A",
    "stop_desc": "UpperHuttStn-A",
    "zone_id": "7",
    "stop_lat": -41.12597969,
    "stop_lon": 175.07058065,
    "location_type": 0,
    "parent_station": "",
    "stop_url": "",
    "stop_timezone": "Pacific/Auckland"
  },
  {
    "id": 77,
    "stop_id": "9069",
    "stop_code": "9069",
    "stop_name": "Pokohiwi Road (near 29)",
    "stop_desc": "PokohiwiRd (29)",
    "zone_id": "4",
    "stop_lat": -41.20334136,
    "stop_lon": 174.888733,
    "location_type": 0,
    "parent_station": "",
    "stop_url": "",
    "stop_timezone": "Pacific/Auckland"
  },
  {
    "id": 78,
    "stop_id": "4459",
    "stop_code": "4459",
    "stop_name": "Khandallah - Box Hill at Station Road East",
    "stop_desc": "KHAN-BoxHill at StationRdE",
    "zone_id": "3",
    "stop_lat": -41.24228705,
    "stop_lon": 174.79241281,
    "location_type": 0,
    "parent_station": "",
    "stop_url": "",
    "stop_timezone": "Pacific/Auckland"
  },
  {
    "id": 79,
    "stop_id": "1250",
    "stop_code": "1250",
    "stop_name": "Golf Road at George Street (near 29)",
    "stop_desc": "GolfRd at George (29)",
    "zone_id": "9",
    "stop_lat": -40.88972419,
    "stop_lon": 174.9838805,
    "location_type": 0,
    "parent_station": "",
    "stop_url": "",
    "stop_timezone": "Pacific/Auckland"
  },
  {
    "id": 80,
    "stop_id": "8982",
    "stop_code": "8982",
    "stop_name": "Nelson Crescent at Wise Street (near 17)",
    "stop_desc": "NelsonCres at Wise (17)",
    "zone_id": "5",
    "stop_lat": -41.25490339,
    "stop_lon": 174.9510895,
    "location_type": 0,
    "parent_station": "",
    "stop_url": "",
    "stop_timezone": "Pacific/Auckland"
  },
  {
    "id": 81,
    "stop_id": "7950",
    "stop_code": "7950",
    "stop_name": "Buckley Road (near 78)",
    "stop_desc": "BuckleyRd (78)",
    "zone_id": "3",
    "stop_lat": -41.33507239,
    "stop_lon": 174.7842646,
    "location_type": 0,
    "parent_station": "",
    "stop_url": "",
    "stop_timezone": "Pacific/Auckland"
  },
  {
    "id": 82,
    "stop_id": "9351",
    "stop_code": "9351",
    "stop_name": "Park Road (near 131)",
    "stop_desc": "ParkRd (131)",
    "zone_id": "5",
    "stop_lat": -41.1880117,
    "stop_lon": 174.9170277,
    "location_type": 0,
    "parent_station": "",
    "stop_url": "",
    "stop_timezone": "Pacific/Auckland"
  },
  {
    "id": 83,
    "stop_id": "2914",
    "stop_code": "2914",
    "stop_name": "Tireti Road (near 45)",
    "stop_desc": "TiretiRd (45)",
    "zone_id": "5",
    "stop_lat": -41.10901489,
    "stop_lon": 174.8342214,
    "location_type": 0,
    "parent_station": "",
    "stop_url": "",
    "stop_timezone": "Pacific/Auckland"
  },
  {
    "id": 84,
    "stop_id": "9250",
    "stop_code": "9250",
    "stop_name": "High Street at Macky Street",
    "stop_desc": "HighSt at Macky",
    "zone_id": "5",
    "stop_lat": -41.1836327,
    "stop_lon": 174.9577946,
    "location_type": 0,
    "parent_station": "",
    "stop_url": "",
    "stop_timezone": "Pacific/Auckland"
  },
  {
    "id": 85,
    "stop_id": "5324",
    "stop_code": "5324",
    "stop_name": "Karori Road at Lancaster Street",
    "stop_desc": "KaroriRd at Lancaster",
    "zone_id": "3",
    "stop_lat": -41.28224548,
    "stop_lon": 174.7463543,
    "location_type": 0,
    "parent_station": "",
    "stop_url": "",
    "stop_timezone": "Pacific/Auckland"
  },
  {
    "id": 86,
    "stop_id": "4418",
    "stop_code": "4418",
    "stop_name": "Clutha Avenue at Nicholson Road (near 3)",
    "stop_desc": "CluthaAve at Nicholson (3)",
    "zone_id": "3",
    "stop_lat": -41.24807289,
    "stop_lon": 174.7894137,
    "location_type": 0,
    "parent_station": "",
    "stop_url": "",
    "stop_timezone": "Pacific/Auckland"
  },
  {
    "id": 87,
    "stop_id": "1560",
    "stop_code": "1560",
    "stop_name": "Waikanae Beach - Rauparaha Street",
    "stop_desc": "WaikanaeBch-RauparahaSt",
    "zone_id": "10",
    "stop_lat": -40.8658842,
    "stop_lon": 175.0287313,
    "location_type": 0,
    "parent_station": "",
    "stop_url": "",
    "stop_timezone": "Pacific/Auckland"
  },
  {
    "id": 88,
    "stop_id": "3260",
    "stop_code": "3260",
    "stop_name": "Hutt Road at Rangiora Avenue",
    "stop_desc": "HuttRd at Rangiora",
    "zone_id": "2/3",
    "stop_lat": -41.25552425,
    "stop_lon": 174.7967786,
    "location_type": 0,
    "parent_station": "",
    "stop_url": "",
    "stop_timezone": "Pacific/Auckland"
  },
  {
    "id": 89,
    "stop_id": "4407",
    "stop_code": "4407",
    "stop_name": "Perth Street at Orari Street Walkway (near 15)",
    "stop_desc": "PerthSt at OrariStWkway (15)",
    "zone_id": "3",
    "stop_lat": -41.25462091,
    "stop_lon": 174.773718,
    "location_type": 0,
    "parent_station": "",
    "stop_url": "",
    "stop_timezone": "Pacific/Auckland"
  },
  {
    "id": 90,
    "stop_id": "7070",
    "stop_code": "7070",
    "stop_name": "Karaka Bay Road opposite Pretoria Road",
    "stop_desc": "KarakaBayRd opp Pretoria",
    "zone_id": "3",
    "stop_lat": -41.3000063,
    "stop_lon": 174.8319201,
    "location_type": 0,
    "parent_station": "",
    "stop_url": "",
    "stop_timezone": "Pacific/Auckland"
  },
  {
    "id": 91,
    "stop_id": "3408",
    "stop_code": "3408",
    "stop_name": "Stewart Drive opposite Batchelor Street",
    "stop_desc": "StewartDr opp Batchelor",
    "zone_id": "3",
    "stop_lat": -41.22215757,
    "stop_lon": 174.8222295,
    "location_type": 0,
    "parent_station": "",
    "stop_url": "",
    "stop_timezone": "Pacific/Auckland"
  },
  {
    "id": 92,
    "stop_id": "9517",
    "stop_code": "9517",
    "stop_name": "Kirton Drive opposite Grace Nicholls Grove",
    "stop_desc": "KirtonDr opp GraceNicholls",
    "zone_id": "7",
    "stop_lat": -41.10900407,
    "stop_lon": 175.03810963,
    "location_type": 0,
    "parent_station": "",
    "stop_url": "",
    "stop_timezone": "Pacific/Auckland"
  },
  {
    "id": 93,
    "stop_id": "1971",
    "stop_code": "1971",
    "stop_name": "South Road at Short Street",
    "stop_desc": "SouthRd at Short",
    "zone_id": "14",
    "stop_lat": -40.96056839,
    "stop_lon": 175.6453288,
    "location_type": 0,
    "parent_station": "",
    "stop_url": "",
    "stop_timezone": "Pacific/Auckland"
  },
  {
    "id": 94,
    "stop_id": "9350",
    "stop_code": "9350",
    "stop_name": "Park Road at Chilean Embassy (near 71)",
    "stop_desc": "ParkRd at ChileanEmb (71)",
    "zone_id": "5",
    "stop_lat": -41.18824009,
    "stop_lon": 174.9195383,
    "location_type": 0,
    "parent_station": "",
    "stop_url": "",
    "stop_timezone": "Pacific/Auckland"
  },
  {
    "id": 95,
    "stop_id": "4454",
    "stop_code": "4454",
    "stop_name": "Bombay Street opposite Tarikaka Street",
    "stop_desc": "BombaySt opp Tarikaka",
    "zone_id": "3",
    "stop_lat": -41.24955108,
    "stop_lon": 174.7812191,
    "location_type": 0,
    "parent_station": "",
    "stop_url": "",
    "stop_timezone": "Pacific/Auckland"
  },
  {
    "id": 96,
    "stop_id": "9463",
    "stop_code": "9463",
    "stop_name": "Fergusson Drive at Perry Street",
    "stop_desc": "FergussonDr at Perry",
    "zone_id": "6",
    "stop_lat": -41.14507039,
    "stop_lon": 175.0158672,
    "location_type": 0,
    "parent_station": "",
    "stop_url": "",
    "stop_timezone": "Pacific/Auckland"
  },
  {
    "id": 97,
    "stop_id": "8233",
    "stop_code": "8233",
    "stop_name": "Taita Drive at Percy Cameron Street (near 238)",
    "stop_desc": "TaitaDr at PercyCameron (238)",
    "zone_id": "5",
    "stop_lat": -41.18692722,
    "stop_lon": 174.9494273,
    "location_type": 0,
    "parent_station": "",
    "stop_url": "",
    "stop_timezone": "Pacific/Auckland"
  },
  {
    "id": 98,
    "stop_id": "9703",
    "stop_code": "9703",
    "stop_name": "Parkside Road at Hutt Park Road",
    "stop_desc": "ParksideRd at HuttPark",
    "zone_id": "4",
    "stop_lat": -41.23672139,
    "stop_lon": 174.9073537,
    "location_type": 0,
    "parent_station": "",
    "stop_url": "",
    "stop_timezone": "Pacific/Auckland"
  },
  {
    "id": 99,
    "stop_id": "5453",
    "stop_code": "5453",
    "stop_name": "Colway Street at Bombay Street",
    "stop_desc": "ColwaySt at Bombay (63)",
    "zone_id": "3",
    "stop_lat": -41.24993521,
    "stop_lon": 174.779678,
    "location_type": 0,
    "parent_station": "",
    "stop_url": "",
    "stop_timezone": "Pacific/Auckland"
  },
  {
    "id": 100,
    "stop_id": "1952",
    "stop_code": "1952",
    "stop_name": "Cole Street at Kummer Crescent",
    "stop_desc": "ColeSt at Kummer",
    "zone_id": "14",
    "stop_lat": -40.94543969,
    "stop_lon": 175.6451997,
    "location_type": 0,
    "parent_station": "",
    "stop_url": "",
    "stop_timezone": "Pacific/Auckland"
  },
  {
    "id": 101,
    "stop_id": "9731",
    "stop_code": "9731",
    "stop_name": "Seaview - Seaview Road (near 43)",
    "stop_desc": "Seaview-SeaviewRd (43)",
    "zone_id": "4",
    "stop_lat": -41.238795,
    "stop_lon": 174.907669,
    "location_type": 0,
    "parent_station": "",
    "stop_url": "",
    "stop_timezone": "Pacific/Auckland"
  },
  {
    "id": 102,
    "stop_id": "1940",
    "stop_code": "1940",
    "stop_name": "High Street Masterton (near 199)",
    "stop_desc": "HighSt Masterton (199)",
    "zone_id": "14",
    "stop_lat": -40.96216734,
    "stop_lon": 175.6266194,
    "location_type": 0,
    "parent_station": "",
    "stop_url": "",
    "stop_timezone": "Pacific/Auckland"
  },
  {
    "id": 103,
    "stop_id": "7224",
    "stop_code": "7224",
    "stop_name": "Kilbirnie - Stop B",
    "stop_desc": "Kilbirnie-B",
    "zone_id": "3/2",
    "stop_lat": -41.31760422,
    "stop_lon": 174.79593749,
    "location_type": 0,
    "parent_station": "",
    "stop_url": "",
    "stop_timezone": "Pacific/Auckland"
  },
  {
    "id": 104,
    "stop_id": "6052",
    "stop_code": "6052",
    "stop_name": "Moa Point Road (near 39)",
    "stop_desc": "MoaPtRd (39)",
    "zone_id": "3",
    "stop_lat": -41.33727468,
    "stop_lon": 174.8104969,
    "location_type": 0,
    "parent_station": "",
    "stop_url": "",
    "stop_timezone": "Pacific/Auckland"
  },
  {
    "id": 105,
    "stop_id": "8312",
    "stop_code": "8312",
    "stop_name": "Logie Street at Shaftsbury Grove",
    "stop_desc": "LogieSt at Shaftsbury",
    "zone_id": "6",
    "stop_lat": -41.17155848,
    "stop_lon": 174.9738851,
    "location_type": 0,
    "parent_station": "",
    "stop_url": "",
    "stop_timezone": "Pacific/Auckland"
  },
  {
    "id": 106,
    "stop_id": "3948",
    "stop_code": "3948",
    "stop_name": "Kenepuru Drive opposite Rembrandt Avenue",
    "stop_desc": "KenepuruDr opp Rembrandt",
    "zone_id": "5",
    "stop_lat": -41.15011217,
    "stop_lon": 174.8327451,
    "location_type": 0,
    "parent_station": "",
    "stop_url": "",
    "stop_timezone": "Pacific/Auckland"
  },
  {
    "id": 107,
    "stop_id": "7424",
    "stop_code": "7424",
    "stop_name": "Berhampore Shops - Adelaide Road",
    "stop_desc": "BerhamporeShops-AdelaideRd",
    "zone_id": "2",
    "stop_lat": -41.31962957,
    "stop_lon": 174.775241,
    "location_type": 0,
    "parent_station": "",
    "stop_url": "",
    "stop_timezone": "Pacific/Auckland"
  },
  {
    "id": 108,
    "stop_id": "4922",
    "stop_code": "4922",
    "stop_name": "Northland Village - Northland Road",
    "stop_desc": "Northland Vlg-NorthlandRd",
    "zone_id": "2",
    "stop_lat": -41.28352121,
    "stop_lon": 174.7569474,
    "location_type": 0,
    "parent_station": "",
    "stop_url": "",
    "stop_timezone": "Pacific/Auckland"
  },
  {
    "id": 109,
    "stop_id": "3506",
    "stop_code": "3506",
    "stop_name": "Helston Road at Beazley Avenue",
    "stop_desc": "HelstonRd at Beazley",
    "zone_id": "3",
    "stop_lat": -41.21659284,
    "stop_lon": 174.8152756,
    "location_type": 0,
    "parent_station": "",
    "stop_url": "",
    "stop_timezone": "Pacific/Auckland"
  },
  {
    "id": 110,
    "stop_id": "8163",
    "stop_code": "8163",
    "stop_name": "Knights Road opposite Chilton St James School",
    "stop_desc": "KnightsRd opp ChiltonSch",
    "zone_id": "4",
    "stop_lat": -41.21222667,
    "stop_lon": 174.91302106,
    "location_type": 0,
    "parent_station": "",
    "stop_url": "",
    "stop_timezone": "Pacific/Auckland"
  },
  {
    "id": 111,
    "stop_id": "5020",
    "stop_code": "5020",
    "stop_name": "Thorndon Quay at Davis Street (near 125)",
    "stop_desc": "ThorndonQy at Davis (125)",
    "zone_id": "1",
    "stop_lat": -41.27419839,
    "stop_lon": 174.7833218,
    "location_type": 0,
    "parent_station": "",
    "stop_url": "",
    "stop_timezone": "Pacific/Auckland"
  },
  {
    "id": 112,
    "stop_id": "8850",
    "stop_code": "8850",
    "stop_name": "Muritai Road at Makaro Gardens",
    "stop_desc": "MuritaiRd at MakaroGdns",
    "zone_id": "6",
    "stop_lat": -41.29210409,
    "stop_lon": 174.8971435,
    "location_type": 0,
    "parent_station": "",
    "stop_url": "",
    "stop_timezone": "Pacific/Auckland"
  },
  {
    "id": 113,
    "stop_id": "7534",
    "stop_code": "7534",
    "stop_name": "Waipapa Road (near 96)",
    "stop_desc": "WaipapaRd (96)",
    "zone_id": "2",
    "stop_lat": -41.30343891,
    "stop_lon": 174.7970186,
    "location_type": 0,
    "parent_station": "",
    "stop_url": "",
    "stop_timezone": "Pacific/Auckland"
  },
  {
    "id": 114,
    "stop_id": "6557",
    "stop_code": "6557",
    "stop_name": "Hataitai Road (near 120)",
    "stop_desc": "HataitaiRd (120)",
    "zone_id": "2",
    "stop_lat": -41.3019554,
    "stop_lon": 174.79691237,
    "location_type": 0,
    "parent_station": "",
    "stop_url": "",
    "stop_timezone": "Pacific/Auckland"
  },
  {
    "id": 115,
    "stop_id": "6567",
    "stop_code": "6567",
    "stop_name": "Roseneath Terrace at Thane Road",
    "stop_desc": "RoseneathTce at Thane",
    "zone_id": "2",
    "stop_lat": -41.29307046,
    "stop_lon": 174.79898933,
    "location_type": 0,
    "parent_station": "",
    "stop_url": "",
    "stop_timezone": "Pacific/Auckland"
  },
  {
    "id": 116,
    "stop_id": "1147",
    "stop_code": "1147",
    "stop_name": "Paraparaumu Beach Shops - Stop B",
    "stop_desc": "ParaparaumuBchShops -B",
    "zone_id": "9",
    "stop_lat": -40.89309815,
    "stop_lon": 174.9814885,
    "location_type": 0,
    "parent_station": "",
    "stop_url": "",
    "stop_timezone": "Pacific/Auckland"
  },
  {
    "id": 117,
    "stop_id": "6936",
    "stop_code": "6936",
    "stop_name": "Hungerford Road at Houghton Bay Road",
    "stop_desc": "HungerfordRd at HoughtonBay",
    "zone_id": "3",
    "stop_lat": -41.33880744,
    "stop_lon": 174.7873543,
    "location_type": 0,
    "parent_station": "",
    "stop_url": "",
    "stop_timezone": "Pacific/Auckland"
  },
  {
    "id": 118,
    "stop_id": "6727",
    "stop_code": "6727",
    "stop_name": "The Ridgeway (near 111)",
    "stop_desc": "Ridgeway (111)",
    "zone_id": "2",
    "stop_lat": -41.31679402,
    "stop_lon": 174.76504073,
    "location_type": 0,
    "parent_station": "",
    "stop_url": "",
    "stop_timezone": "Pacific/Auckland"
  },
  {
    "id": 119,
    "stop_id": "1213",
    "stop_code": "1213",
    "stop_name": "Guildford Drive at Regent Drive",
    "stop_desc": "GuildfordDr at Regent",
    "zone_id": "9",
    "stop_lat": -40.89520317,
    "stop_lon": 175.0004256,
    "location_type": 0,
    "parent_station": "",
    "stop_url": "",
    "stop_timezone": "Pacific/Auckland"
  },
  {
    "id": 120,
    "stop_id": "5368",
    "stop_code": "5368",
    "stop_name": "Hazlewood Avenue at Fitzgerald Place",
    "stop_desc": "HazlewoodAve at Fitzgerald",
    "zone_id": "3",
    "stop_lat": -41.29716839,
    "stop_lon": 174.7241108,
    "location_type": 0,
    "parent_station": "",
    "stop_url": "",
    "stop_timezone": "Pacific/Auckland"
  },
  {
    "id": 121,
    "stop_id": "2765",
    "stop_code": "2765",
    "stop_name": "The Companionway at Cannon Lane (school stop)",
    "stop_desc": "TheCompanionway at Cannon (sch)",
    "zone_id": "6",
    "stop_lat": -41.11374805,
    "stop_lon": 174.89083639,
    "location_type": 0,
    "parent_station": "",
    "stop_url": "",
    "stop_timezone": "Pacific/Auckland"
  },
  {
    "id": 122,
    "stop_id": "4457",
    "stop_code": "4457",
    "stop_name": "Mysore Street (opposite 138)",
    "stop_desc": "MysoreSt at Cockayne",
    "zone_id": "3",
    "stop_lat": -41.25165277,
    "stop_lon": 174.7850954,
    "location_type": 0,
    "parent_station": "",
    "stop_url": "",
    "stop_timezone": "Pacific/Auckland"
  },
  {
    "id": 123,
    "stop_id": "6926",
    "stop_code": "6926",
    "stop_name": "Sutherland Road at Rodrigo Road",
    "stop_desc": "SutherlandRd at Rodrigo",
    "zone_id": "2/3",
    "stop_lat": -41.32256804,
    "stop_lon": 174.7890611,
    "location_type": 0,
    "parent_station": "",
    "stop_url": "",
    "stop_timezone": "Pacific/Auckland"
  },
  {
    "id": 124,
    "stop_id": "3422",
    "stop_code": "3422",
    "stop_name": "Mark Avenue near Paparangi Shops",
    "stop_desc": "MarkAve nr PaparangiShops",
    "zone_id": "3",
    "stop_lat": -41.21403051,
    "stop_lon": 174.817829,
    "location_type": 0,
    "parent_station": "",
    "stop_url": "",
    "stop_timezone": "Pacific/Auckland"
  },
  {
    "id": 125,
    "stop_id": "7212",
    "stop_code": "7212",
    "stop_name": "Elizabeth Street at Kent Terrace",
    "stop_desc": "ElizabethSt at Kent",
    "zone_id": "1",
    "stop_lat": -41.2958177,
    "stop_lon": 174.7831941,
    "location_type": 0,
    "parent_station": "",
    "stop_url": "",
    "stop_timezone": "Pacific/Auckland"
  },
  {
    "id": 126,
    "stop_id": "5506",
    "stop_code": "5506",
    "stop_name": "Lambton Central - Stop B",
    "stop_desc": "LambtonCtrl-B",
    "zone_id": "1",
    "stop_lat": -41.28296166,
    "stop_lon": 174.7757989,
    "location_type": 0,
    "parent_station": "",
    "stop_url": "",
    "stop_timezone": "Pacific/Auckland"
  },
  {
    "id": 127,
    "stop_id": "1272",
    "stop_code": "1272",
    "stop_name": "Kapiti Road at Hurley Road",
    "stop_desc": "KapitiRd at Hurley",
    "zone_id": "9",
    "stop_lat": -40.89741363,
    "stop_lon": 174.9871967,
    "location_type": 0,
    "parent_station": "",
    "stop_url": "",
    "stop_timezone": "Pacific/Auckland"
  },
  {
    "id": 128,
    "stop_id": "8328",
    "stop_code": "8328",
    "stop_name": "The Glen - Horoeka Street at Glen Road (near 5)",
    "stop_desc": "TheGlen-HoroekaSt at Glen (5)",
    "zone_id": "6",
    "stop_lat": -41.17088703,
    "stop_lon": 174.9867388,
    "location_type": 0,
    "parent_station": "",
    "stop_url": "",
    "stop_timezone": "Pacific/Auckland"
  },
  {
    "id": 129,
    "stop_id": "3518",
    "stop_code": "3518",
    "stop_name": "Kenmore Street (near 72)",
    "stop_desc": "KenmoreSt (72)",
    "zone_id": "3",
    "stop_lat": -41.22567661,
    "stop_lon": 174.82734405,
    "location_type": 0,
    "parent_station": "",
    "stop_url": "",
    "stop_timezone": "Pacific/Auckland"
  },
  {
    "id": 130,
    "stop_id": "5917",
    "stop_code": "5917",
    "stop_name": "Kelburn Village - Upland Road (St Michael's)",
    "stop_desc": "KelburnVlg-UplandRd (StMichael's)",
    "zone_id": "2",
    "stop_lat": -41.28928589,
    "stop_lon": 174.7628342,
    "location_type": 0,
    "parent_station": "",
    "stop_url": "",
    "stop_timezone": "Pacific/Auckland"
  },
  {
    "id": 131,
    "stop_id": "8514",
    "stop_code": "8514",
    "stop_name": "Kirton Drive at Betty Watt Grove",
    "stop_desc": "KirtonDr at BettyWatt",
    "zone_id": "7",
    "stop_lat": -41.11842123,
    "stop_lon": 175.03765751,
    "location_type": 0,
    "parent_station": "",
    "stop_url": "",
    "stop_timezone": "Pacific/Auckland"
  },
  {
    "id": 132,
    "stop_id": "PETO1",
    "stop_code": "PETO1",
    "stop_name": "Petone Station",
    "stop_desc": "PetoneStn",
    "zone_id": "4",
    "stop_lat": -41.22202574,
    "stop_lon": 174.86951757,
    "location_type": 0,
    "parent_station": "PETO",
    "stop_url": "",
    "stop_timezone": ""
  },
  {
    "id": 133,
    "stop_id": "9002",
    "stop_code": "9002",
    "stop_name": "Jackson Street at Te Puni Street (eastbound)",
    "stop_desc": "JacksonSt at TePuni (e)",
    "zone_id": "4",
    "stop_lat": -41.22291351,
    "stop_lon": 174.8705664,
    "location_type": 0,
    "parent_station": "",
    "stop_url": "",
    "stop_timezone": "Pacific/Auckland"
  },
  {
    "id": 134,
    "stop_id": "3927",
    "stop_code": "3927",
    "stop_name": "Hinau Street (near 3) (school stop)",
    "stop_desc": "Hinau St Sch Stop",
    "zone_id": "4",
    "stop_lat": -41.16246879,
    "stop_lon": 174.83143218,
    "location_type": 0,
    "parent_station": "",
    "stop_url": "",
    "stop_timezone": "Pacific/Auckland"
  },
  {
    "id": 135,
    "stop_id": "6559",
    "stop_code": "6559",
    "stop_name": "Hataitai Road at Hataitai School",
    "stop_desc": "HataitaiRd at HataitaiSch",
    "zone_id": "2",
    "stop_lat": -41.2978909,
    "stop_lon": 174.8004493,
    "location_type": 0,
    "parent_station": "",
    "stop_url": "",
    "stop_timezone": "Pacific/Auckland"
  },
  {
    "id": 136,
    "stop_id": "9859",
    "stop_code": "9859",
    "stop_name": "San Antonio School (hail and ride) (school stop)",
    "stop_desc": "SanAntonioSch (h/r) (sch)",
    "zone_id": "6",
    "stop_lat": -41.293577,
    "stop_lon": 174.894997,
    "location_type": 0,
    "parent_station": "",
    "stop_url": "",
    "stop_timezone": "Pacific/Auckland"
  },
  {
    "id": 137,
    "stop_id": "9138",
    "stop_code": "9138",
    "stop_name": "Harbour View Road at Panorama Grove (school stop)",
    "stop_desc": "HarbourViewRd at Panorama (sch)",
    "zone_id": "4",
    "stop_lat": -41.20279,
    "stop_lon": 174.89532,
    "location_type": 0,
    "parent_station": "",
    "stop_url": "",
    "stop_timezone": "Pacific/Auckland"
  },
  {
    "id": 138,
    "stop_id": "6286",
    "stop_code": "6286",
    "stop_name": "Seatoun Heights Road at Tio Tio Road",
    "stop_desc": "SeatounHtsRd at Tiotio",
    "zone_id": "3",
    "stop_lat": -41.32317226,
    "stop_lon": 174.8270749,
    "location_type": 0,
    "parent_station": "",
    "stop_url": "",
    "stop_timezone": "Pacific/Auckland"
  },
  {
    "id": 139,
    "stop_id": "7346",
    "stop_code": "7346",
    "stop_name": "Airport Retail Park (opposite)",
    "stop_desc": "AirportRetailPk (opp)",
    "zone_id": "3",
    "stop_lat": -41.32650827,
    "stop_lon": 174.8020736,
    "location_type": 0,
    "parent_station": "",
    "stop_url": "",
    "stop_timezone": "Pacific/Auckland"
  },
  {
    "id": 140,
    "stop_id": "3268",
    "stop_code": "3268",
    "stop_name": "Johnsonville Road at Disraeli Street",
    "stop_desc": "JohnsonvilleRd at Disraeli",
    "zone_id": "3",
    "stop_lat": -41.22545745,
    "stop_lon": 174.8071696,
    "location_type": 0,
    "parent_station": "",
    "stop_url": "",
    "stop_timezone": "Pacific/Auckland"
  },
  {
    "id": 141,
    "stop_id": "7910",
    "stop_code": "7910",
    "stop_name": "Taranaki Street at Courtenay Place (near 72)",
    "stop_desc": "TaranakiSt at Courtenay (72)",
    "zone_id": "1",
    "stop_lat": -41.29337248,
    "stop_lon": 174.778231,
    "location_type": 0,
    "parent_station": "",
    "stop_url": "",
    "stop_timezone": "Pacific/Auckland"
  },
  {
    "id": 142,
    "stop_id": "5420",
    "stop_code": "5420",
    "stop_name": "Everest Street at Ganges Road",
    "stop_desc": "EverestSt at Ganges",
    "zone_id": "3",
    "stop_lat": -41.24828172,
    "stop_lon": 174.7933578,
    "location_type": 0,
    "parent_station": "",
    "stop_url": "",
    "stop_timezone": "Pacific/Auckland"
  },
  {
    "id": 143,
    "stop_id": "3210",
    "stop_code": "3210",
    "stop_name": "Halswater Drive at Dormar Place",
    "stop_desc": "HalswaterDr at Dormar",
    "zone_id": "3",
    "stop_lat": -41.20773958,
    "stop_lon": 174.8112141,
    "location_type": 0,
    "parent_station": "",
    "stop_url": "",
    "stop_timezone": "Pacific/Auckland"
  },
  {
    "id": 144,
    "stop_id": "3070",
    "stop_code": "3070",
    "stop_name": "Erris Street at Ironside Road",
    "stop_desc": "ErrisSt at Ironside",
    "zone_id": "3",
    "stop_lat": -41.21882257,
    "stop_lon": 174.7994715,
    "location_type": 0,
    "parent_station": "",
    "stop_url": "",
    "stop_timezone": "Pacific/Auckland"
  },
  {
    "id": 145,
    "stop_id": "8462",
    "stop_code": "8462",
    "stop_name": "Silverstream Station - Fergusson Drive",
    "stop_desc": "SilverstreamStn-FergussonDr",
    "zone_id": "6",
    "stop_lat": -41.14685583,
    "stop_lon": 175.0116322,
    "location_type": 0,
    "parent_station": "",
    "stop_url": "",
    "stop_timezone": "Pacific/Auckland"
  },
  {
    "id": 146,
    "stop_id": "2842",
    "stop_code": "2842",
    "stop_name": "Richard Street (near 2)",
    "stop_desc": "RichardSt (2)",
    "zone_id": "5",
    "stop_lat": -41.10259728,
    "stop_lon": 174.83660018,
    "location_type": 0,
    "parent_station": "",
    "stop_url": "",
    "stop_timezone": "Pacific/Auckland"
  },
  {
    "id": 147,
    "stop_id": "5118",
    "stop_code": "5118",
    "stop_name": "Grosvenor Terrace at Lower Watt Street",
    "stop_desc": "GrosvenorTce at LowerWatt",
    "zone_id": "2",
    "stop_lat": -41.26594876,
    "stop_lon": 174.7798351,
    "location_type": 0,
    "parent_station": "",
    "stop_url": "",
    "stop_timezone": "Pacific/Auckland"
  },
  {
    "id": 148,
    "stop_id": "9550",
    "stop_code": "9550",
    "stop_name": "Shakespeare Avenue at Moonshine Road (near 84)",
    "stop_desc": "ShakespeareAve at Moonshine (84)",
    "zone_id": "7",
    "stop_lat": -41.12454839,
    "stop_lon": 175.040611,
    "location_type": 0,
    "parent_station": "",
    "stop_url": "",
    "stop_timezone": "Pacific/Auckland"
  },
  {
    "id": 149,
    "stop_id": "4946",
    "stop_code": "4946",
    "stop_name": "Highbury Road at Disley Street",
    "stop_desc": "HighburyRd at Disley",
    "zone_id": "2",
    "stop_lat": -41.29246932,
    "stop_lon": 174.7549184,
    "location_type": 0,
    "parent_station": "",
    "stop_url": "",
    "stop_timezone": "Pacific/Auckland"
  },
  {
    "id": 150,
    "stop_id": "1828",
    "stop_code": "1828",
    "stop_name": "Waingawa - SH2 at Norfolk Road",
    "stop_desc": "Waingawa-SH2 at NorfolkRd",
    "zone_id": "13",
    "stop_lat": -40.9691008,
    "stop_lon": 175.6028907,
    "location_type": 0,
    "parent_station": "",
    "stop_url": "",
    "stop_timezone": "Pacific/Auckland"
  },
  {
    "id": 151,
    "stop_id": "2745",
    "stop_code": "2745",
    "stop_name": "Joseph Banks Drive (near 88) (school stop)",
    "stop_desc": "JosephBanksDr (88) (sch)",
    "zone_id": "6",
    "stop_lat": -41.107917,
    "stop_lon": 174.914342,
    "location_type": 0,
    "parent_station": "",
    "stop_url": "",
    "stop_timezone": "Pacific/Auckland"
  },
  {
    "id": 152,
    "stop_id": "8289",
    "stop_code": "8289",
    "stop_name": "Naenae Station (bus stop)",
    "stop_desc": "NaenaeStn (bus)",
    "zone_id": "5",
    "stop_lat": -41.19850918,
    "stop_lon": 174.9463127,
    "location_type": 0,
    "parent_station": "",
    "stop_url": "",
    "stop_timezone": "Pacific/Auckland"
  },
  {
    "id": 153,
    "stop_id": "1895",
    "stop_code": "1895",
    "stop_name": "Oak Street at Colville Street",
    "stop_desc": "OakSt at Colville",
    "zone_id": "14",
    "stop_lat": -40.93929294,
    "stop_lon": 175.6383028,
    "location_type": 0,
    "parent_station": "",
    "stop_url": "",
    "stop_timezone": "Pacific/Auckland"
  },
  {
    "id": 154,
    "stop_id": "2816",
    "stop_code": "2816",
    "stop_name": "Titahi Bay Road at Whanga Crescent Walkway",
    "stop_desc": "TitahiBayRd at Walkway",
    "zone_id": "5",
    "stop_lat": -41.11961614,
    "stop_lon": 174.83893266,
    "location_type": 0,
    "parent_station": "",
    "stop_url": "",
    "stop_timezone": "Pacific/Auckland"
  },
  {
    "id": 155,
    "stop_id": "6733",
    "stop_code": "6733",
    "stop_name": "Kingston - Stop A",
    "stop_desc": "Kingston-A",
    "zone_id": "2",
    "stop_lat": -41.323477,
    "stop_lon": 174.763686,
    "location_type": 0,
    "parent_station": "",
    "stop_url": "",
    "stop_timezone": "Pacific/Auckland"
  },
  {
    "id": 156,
    "stop_id": "2751",
    "stop_code": "2751",
    "stop_name": "Paremata School (opposite) (school stop)",
    "stop_desc": "ParemataSch (opp) (sch)",
    "zone_id": "6/5",
    "stop_lat": -41.107129,
    "stop_lon": 174.868957,
    "location_type": 0,
    "parent_station": "",
    "stop_url": "",
    "stop_timezone": "Pacific/Auckland"
  },
  {
    "id": 157,
    "stop_id": "6212",
    "stop_code": "6212",
    "stop_name": "Elizabeth Street (near 7)",
    "stop_desc": "ElizabethSt (7)",
    "zone_id": "1",
    "stop_lat": -41.2958103,
    "stop_lon": 174.7836717,
    "location_type": 0,
    "parent_station": "",
    "stop_url": "",
    "stop_timezone": "Pacific/Auckland"
  },
  {
    "id": 158,
    "stop_id": "1893",
    "stop_code": "1893",
    "stop_name": "Masonic Village",
    "stop_desc": "MasonicVlg",
    "zone_id": "14",
    "stop_lat": -40.94154225,
    "stop_lon": 175.6344726,
    "location_type": 0,
    "parent_station": "",
    "stop_url": "",
    "stop_timezone": "Pacific/Auckland"
  },
  {
    "id": 159,
    "stop_id": "7754",
    "stop_code": "7754",
    "stop_name": "Balfour Street (near 21)",
    "stop_desc": "BalfourSt (21)",
    "zone_id": "2",
    "stop_lat": -41.31968,
    "stop_lon": 174.76683,
    "location_type": 0,
    "parent_station": "",
    "stop_url": "",
    "stop_timezone": "Pacific/Auckland"
  },
  {
    "id": 160,
    "stop_id": "9150",
    "stop_code": "9150",
    "stop_name": "Melling Station (bus stop)",
    "stop_desc": "MellingStn (bus)",
    "zone_id": "4",
    "stop_lat": -41.20351255,
    "stop_lon": 174.9056732,
    "location_type": 0,
    "parent_station": "",
    "stop_url": "",
    "stop_timezone": "Pacific/Auckland"
  },
  {
    "id": 161,
    "stop_id": "3208",
    "stop_code": "3208",
    "stop_name": "Middleton Road opposite Wingfield Place",
    "stop_desc": "MiddletonRd opp Wingfield",
    "zone_id": "3",
    "stop_lat": -41.21115712,
    "stop_lon": 174.811547,
    "location_type": 0,
    "parent_station": "",
    "stop_url": "",
    "stop_timezone": "Pacific/Auckland"
  },
  {
    "id": 162,
    "stop_id": "7791",
    "stop_code": "7791",
    "stop_name": "Ohiro Road (near 264)",
    "stop_desc": "OhiroRd (264)",
    "zone_id": "2",
    "stop_lat": -41.30919642,
    "stop_lon": 174.7625344,
    "location_type": 0,
    "parent_station": "",
    "stop_url": "",
    "stop_timezone": "Pacific/Auckland"
  },
  {
    "id": 163,
    "stop_id": "8307",
    "stop_code": "8307",
    "stop_name": "Holborn Drive (near 106)",
    "stop_desc": "HolbornDr (106)",
    "zone_id": "6",
    "stop_lat": -41.16494944,
    "stop_lon": 174.9785723,
    "location_type": 0,
    "parent_station": "",
    "stop_url": "",
    "stop_timezone": "Pacific/Auckland"
  },
  {
    "id": 164,
    "stop_id": "1944",
    "stop_code": "1944",
    "stop_name": "Hadlow School (opposite)",
    "stop_desc": "HadlowSch (opp)",
    "zone_id": "14",
    "stop_lat": -40.95985382,
    "stop_lon": 175.6411417,
    "location_type": 0,
    "parent_station": "",
    "stop_url": "",
    "stop_timezone": "Pacific/Auckland"
  },
  {
    "id": 165,
    "stop_id": "4425",
    "stop_code": "4425",
    "stop_name": "Mandalay Terrace (near 24)",
    "stop_desc": "MandalayTce (24)",
    "zone_id": "3",
    "stop_lat": -41.24750614,
    "stop_lon": 174.8026454,
    "location_type": 0,
    "parent_station": "",
    "stop_url": "",
    "stop_timezone": "Pacific/Auckland"
  },
  {
    "id": 166,
    "stop_id": "7575",
    "stop_code": "7575",
    "stop_name": "Mt Victoria Lookout",
    "stop_desc": "MtVicLookout",
    "zone_id": "2",
    "stop_lat": -41.29644984,
    "stop_lon": 174.7946769,
    "location_type": 0,
    "parent_station": "",
    "stop_url": "",
    "stop_timezone": "Pacific/Auckland"
  },
  {
    "id": 167,
    "stop_id": "2832",
    "stop_code": "2832",
    "stop_name": "Dimock Street (near 71)",
    "stop_desc": "DimockSt (71)",
    "zone_id": "5",
    "stop_lat": -41.10398194,
    "stop_lon": 174.8447988,
    "location_type": 0,
    "parent_station": "",
    "stop_url": "",
    "stop_timezone": "Pacific/Auckland"
  },
  {
    "id": 168,
    "stop_id": "1606",
    "stop_code": "1606",
    "stop_name": "Field Way at Hughes Street",
    "stop_desc": "FieldWay at Hughes",
    "zone_id": "10",
    "stop_lat": -40.85547044,
    "stop_lon": 175.0318539,
    "location_type": 0,
    "parent_station": "",
    "stop_url": "",
    "stop_timezone": "Pacific/Auckland"
  },
  {
    "id": 169,
    "stop_id": "1070",
    "stop_code": "1070",
    "stop_name": "Ruapehu Street opposite Kaimanawa Street",
    "stop_desc": "RuapehuSt opp Kaimanawa",
    "zone_id": "9",
    "stop_lat": -40.92122182,
    "stop_lon": 175.0115416,
    "location_type": 0,
    "parent_station": "",
    "stop_url": "",
    "stop_timezone": "Pacific/Auckland"
  },
  {
    "id": 170,
    "stop_id": "1534",
    "stop_code": "1534",
    "stop_name": "Te Moana Road at Lavinia Grove",
    "stop_desc": "TeMoanaRd at Lavinia",
    "zone_id": "10",
    "stop_lat": -40.86640767,
    "stop_lon": 175.0296966,
    "location_type": 0,
    "parent_station": "",
    "stop_url": "",
    "stop_timezone": "Pacific/Auckland"
  },
  {
    "id": 171,
    "stop_id": "2570",
    "stop_code": "2570",
    "stop_name": "Postgate Drive opposite Browns Bay Park",
    "stop_desc": "PostgateDr opp BrownsBayPk",
    "zone_id": "6",
    "stop_lat": -41.10699992,
    "stop_lon": 174.880967,
    "location_type": 0,
    "parent_station": "",
    "stop_url": "",
    "stop_timezone": "Pacific/Auckland"
  },
  {
    "id": 172,
    "stop_id": "6240",
    "stop_code": "6240",
    "stop_name": "Darlington Road at Camperdown Road",
    "stop_desc": "DarlingtonRd at Camperdown",
    "zone_id": "3",
    "stop_lat": -41.30740322,
    "stop_lon": 174.8255573,
    "location_type": 0,
    "parent_station": "",
    "stop_url": "",
    "stop_timezone": "Pacific/Auckland"
  },
  {
    "id": 173,
    "stop_id": "9225",
    "stop_code": "9225",
    "stop_name": "High Street at Thornycroft Avenue (near 773)",
    "stop_desc": "HighSt at Thornycroft (773)",
    "zone_id": "5",
    "stop_lat": -41.20182106,
    "stop_lon": 174.9315034,
    "location_type": 0,
    "parent_station": "",
    "stop_url": "",
    "stop_timezone": "Pacific/Auckland"
  },
  {
    "id": 174,
    "stop_id": "8054",
    "stop_code": "8054",
    "stop_name": "Dowse Drive (near 82)",
    "stop_desc": "DowseDr (82)",
    "zone_id": "4",
    "stop_lat": -41.21249853,
    "stop_lon": 174.8795733,
    "location_type": 0,
    "parent_station": "",
    "stop_url": "",
    "stop_timezone": "Pacific/Auckland"
  },
  {
    "id": 175,
    "stop_id": "6082",
    "stop_code": "6082",
    "stop_name": "Devonshire Road (near 43) (school stop)",
    "stop_desc": "DevonshireRd (43) (sch)",
    "zone_id": "3",
    "stop_lat": -41.32132362,
    "stop_lon": 174.816746,
    "location_type": 0,
    "parent_station": "",
    "stop_url": "",
    "stop_timezone": "Pacific/Auckland"
  },
  {
    "id": 176,
    "stop_id": "1730",
    "stop_code": "1730",
    "stop_name": "Otaki School - Mill Road",
    "stop_desc": "OtakiSch-MillRd",
    "zone_id": "13",
    "stop_lat": -40.75426766,
    "stop_lon": 175.143905,
    "location_type": 0,
    "parent_station": "",
    "stop_url": "",
    "stop_timezone": "Pacific/Auckland"
  },
  {
    "id": 177,
    "stop_id": "8584",
    "stop_code": "8584",
    "stop_name": "Fergusson Drive at Kashmir Avenue (near 1016)",
    "stop_desc": "FergussonDr at Kashmir (1016)",
    "zone_id": "7",
    "stop_lat": -41.12103551,
    "stop_lon": 175.0808809,
    "location_type": 0,
    "parent_station": "",
    "stop_url": "",
    "stop_timezone": "Pacific/Auckland"
  },
  {
    "id": 178,
    "stop_id": "8410",
    "stop_code": "8410",
    "stop_name": "Sunbrae Drive at Blue Mountains Road",
    "stop_desc": "SunbraeDr at BlueMtns",
    "zone_id": "6",
    "stop_lat": -41.15248572,
    "stop_lon": 175.0141877,
    "location_type": 0,
    "parent_station": "",
    "stop_url": "",
    "stop_timezone": "Pacific/Auckland"
  },
  {
    "id": 179,
    "stop_id": "9118",
    "stop_code": "9118",
    "stop_name": "High Street at Melling Road",
    "stop_desc": "HighSt at Melling",
    "zone_id": "4",
    "stop_lat": -41.20503227,
    "stop_lon": 174.9117998,
    "location_type": 0,
    "parent_station": "",
    "stop_url": "",
    "stop_timezone": "Pacific/Auckland"
  },
  {
    "id": 180,
    "stop_id": "7242",
    "stop_code": "7242",
    "stop_name": "Darlington Road (near 188)",
    "stop_desc": "DarlingtonRd (188)",
    "zone_id": "3",
    "stop_lat": -41.30197289,
    "stop_lon": 174.8271974,
    "location_type": 0,
    "parent_station": "",
    "stop_url": "",
    "stop_timezone": "Pacific/Auckland"
  },
  {
    "id": 181,
    "stop_id": "7327",
    "stop_code": "7327",
    "stop_name": "Onepu Road at Cruickshank Street",
    "stop_desc": "OnepuRd at Cruickshank",
    "zone_id": "3",
    "stop_lat": -41.32075882,
    "stop_lon": 174.7953439,
    "location_type": 0,
    "parent_station": "",
    "stop_url": "",
    "stop_timezone": "Pacific/Auckland"
  },
  {
    "id": 182,
    "stop_id": "5114",
    "stop_code": "5114",
    "stop_name": "Molesworth Street - Motorway",
    "stop_desc": "MolesworthSt-Motorway",
    "zone_id": "1",
    "stop_lat": -41.27266086,
    "stop_lon": 174.7779074,
    "location_type": 0,
    "parent_station": "",
    "stop_url": "",
    "stop_timezone": "Pacific/Auckland"
  },
  {
    "id": 183,
    "stop_id": "1420",
    "stop_code": "1420",
    "stop_name": "The Parade at Sand Track",
    "stop_desc": "The Parade at Sand Track",
    "zone_id": "8",
    "stop_lat": -40.98441091,
    "stop_lon": 174.95218658,
    "location_type": 0,
    "parent_station": "",
    "stop_url": "",
    "stop_timezone": "Pacific/Auckland"
  },
  {
    "id": 184,
    "stop_id": "6791",
    "stop_code": "6791",
    "stop_name": "Ohiro Road at Taft Street",
    "stop_desc": "OhiroRd at Taft",
    "zone_id": "2",
    "stop_lat": -41.30919459,
    "stop_lon": 174.7626538,
    "location_type": 0,
    "parent_station": "",
    "stop_url": "",
    "stop_timezone": "Pacific/Auckland"
  },
  {
    "id": 185,
    "stop_id": "8278",
    "stop_code": "8278",
    "stop_name": "Waddington Drive at Hay Street",
    "stop_desc": "WaddingtonDr at Hay",
    "zone_id": "5",
    "stop_lat": -41.20304194,
    "stop_lon": 174.9605199,
    "location_type": 0,
    "parent_station": "",
    "stop_url": "",
    "stop_timezone": "Pacific/Auckland"
  },
  {
    "id": 186,
    "stop_id": "7241",
    "stop_code": "7241",
    "stop_name": "Miramar - Darlington Road (near 124)",
    "stop_desc": "Miramar-DarlingtonRd (124)",
    "zone_id": "3",
    "stop_lat": -41.30571237,
    "stop_lon": 174.82612269,
    "location_type": 0,
    "parent_station": "",
    "stop_url": "",
    "stop_timezone": "Pacific/Auckland"
  },
  {
    "id": 187,
    "stop_id": "AWAR",
    "stop_code": "AWAR",
    "stop_name": "Awarua Street Station",
    "stop_desc": "AwaruaSt Stn",
    "zone_id": "3",
    "stop_lat": -41.24650334,
    "stop_lon": 174.7742774,
    "location_type": 0,
    "parent_station": "",
    "stop_url": "",
    "stop_timezone": "Pacific/Auckland"
  },
  {
    "id": 188,
    "stop_id": "2510",
    "stop_code": "2510",
    "stop_name": "Eskdale Road at Moray Place (near 61)",
    "stop_desc": "EskdaleRd at Moray (61)",
    "zone_id": "5",
    "stop_lat": -41.111303,
    "stop_lon": 174.868126,
    "location_type": 0,
    "parent_station": "",
    "stop_url": "",
    "stop_timezone": "Pacific/Auckland"
  },
  {
    "id": 189,
    "stop_id": "4113",
    "stop_code": "4113",
    "stop_name": "Murphy Street - Wellington Girls' College",
    "stop_desc": "MurphySt-WgtnGirls'Coll",
    "zone_id": "1",
    "stop_lat": -41.27533423,
    "stop_lon": 174.7797709,
    "location_type": 0,
    "parent_station": "",
    "stop_url": "",
    "stop_timezone": "Pacific/Auckland"
  },
  {
    "id": 190,
    "stop_id": "8779",
    "stop_code": "8779",
    "stop_name": "Gracefield Road (near 101)",
    "stop_desc": "GracefieldRd (101)",
    "zone_id": "4",
    "stop_lat": -41.23656885,
    "stop_lon": 174.9165371,
    "location_type": 0,
    "parent_station": "",
    "stop_url": "",
    "stop_timezone": "Pacific/Auckland"
  },
  {
    "id": 191,
    "stop_id": "7144",
    "stop_code": "7144",
    "stop_name": "Murchison Street at Irwell Street",
    "stop_desc": "MurchisonSt at Irwell",
    "zone_id": "3",
    "stop_lat": -41.33655778,
    "stop_lon": 174.7638696,
    "location_type": 0,
    "parent_station": "",
    "stop_url": "",
    "stop_timezone": "Pacific/Auckland"
  },
  {
    "id": 192,
    "stop_id": "3034",
    "stop_code": "3034",
    "stop_name": "Truscott Avenue opposite Fairburn Grove",
    "stop_desc": "TruscottAve opp Fairburn",
    "zone_id": "3",
    "stop_lat": -41.2264012,
    "stop_lon": 174.79590666,
    "location_type": 0,
    "parent_station": "",
    "stop_url": "",
    "stop_timezone": "Pacific/Auckland"
  },
  {
    "id": 193,
    "stop_id": "1840",
    "stop_code": "1840",
    "stop_name": "High Street at Judds Road",
    "stop_desc": "HighSt at Judds",
    "zone_id": "14",
    "stop_lat": -40.96199819,
    "stop_lon": 175.6261374,
    "location_type": 0,
    "parent_station": "",
    "stop_url": "",
    "stop_timezone": "Pacific/Auckland"
  },
  {
    "id": 194,
    "stop_id": "3299",
    "stop_code": "3299",
    "stop_name": "Melksham Drive opposite Mauldeth Terrace",
    "stop_desc": "MelkshamDr opp Mauldeth",
    "zone_id": "3",
    "stop_lat": -41.19895769,
    "stop_lon": 174.8076702,
    "location_type": 0,
    "parent_station": "",
    "stop_url": "",
    "stop_timezone": "Pacific/Auckland"
  },
  {
    "id": 195,
    "stop_id": "7145",
    "stop_code": "7145",
    "stop_name": "Murchison Street opposite Domanski Crescent",
    "stop_desc": "MurchisonSt opp Domanski",
    "zone_id": "3",
    "stop_lat": -41.3356,
    "stop_lon": 174.76104,
    "location_type": 0,
    "parent_station": "",
    "stop_url": "",
    "stop_timezone": "Pacific/Auckland"
  },
  {
    "id": 196,
    "stop_id": "9607",
    "stop_code": "9607",
    "stop_name": "Topaz Street opposite Pearl Grove",
    "stop_desc": "TopazSt opp Pearl",
    "zone_id": "7",
    "stop_lat": -41.09616248,
    "stop_lon": 175.1112908,
    "location_type": 0,
    "parent_station": "",
    "stop_url": "",
    "stop_timezone": "Pacific/Auckland"
  },
  {
    "id": 197,
    "stop_id": "8548",
    "stop_code": "8548",
    "stop_name": "Upper Hutt College - Moonshine Road (near 34)",
    "stop_desc": "UpperHuttColl-MoonshineRd (34)",
    "zone_id": "7",
    "stop_lat": -41.12713584,
    "stop_lon": 175.0420015,
    "location_type": 0,
    "parent_station": "",
    "stop_url": "",
    "stop_timezone": "Pacific/Auckland"
  },
  {
    "id": 198,
    "stop_id": "2604",
    "stop_code": "2604",
    "stop_name": "Paremata Road (near 132)",
    "stop_desc": "ParemataRd (132)",
    "zone_id": "6",
    "stop_lat": -41.10346078,
    "stop_lon": 174.8770553,
    "location_type": 0,
    "parent_station": "",
    "stop_url": "",
    "stop_timezone": "Pacific/Auckland"
  },
  {
    "id": 199,
    "stop_id": "9208",
    "stop_code": "9208",
    "stop_name": "Fairway Drive at Avalon Park (GNS Science)",
    "stop_desc": "FairwayDr at AvalonPk (GNS)",
    "zone_id": "5",
    "stop_lat": -41.19539706,
    "stop_lon": 174.9332225,
    "location_type": 0,
    "parent_station": "",
    "stop_url": "",
    "stop_timezone": "Pacific/Auckland"
  },
  {
    "id": 200,
    "stop_id": "7038",
    "stop_code": "7038",
    "stop_name": "Broadway at Cavendish Square",
    "stop_desc": "Broadway at Cavendish",
    "zone_id": "3",
    "stop_lat": -41.32450923,
    "stop_lon": 174.8260348,
    "location_type": 0,
    "parent_station": "",
    "stop_url": "",
    "stop_timezone": "Pacific/Auckland"
  },
  {
    "id": 201,
    "stop_id": "7129",
    "stop_code": "7129",
    "stop_name": "The Parade (near 36)",
    "stop_desc": "Parade (36)",
    "zone_id": "3",
    "stop_lat": -41.32902251,
    "stop_lon": 174.77394876,
    "location_type": 0,
    "parent_station": "",
    "stop_url": "",
    "stop_timezone": "Pacific/Auckland"
  },
  {
    "id": 202,
    "stop_id": "2810",
    "stop_code": "2810",
    "stop_name": "Takapuwahia Drive at Te Hiko Street (near 60)",
    "stop_desc": "TakapuwahiaDr at TeHiko (60)",
    "zone_id": "5",
    "stop_lat": -41.12436651,
    "stop_lon": 174.83176473,
    "location_type": 0,
    "parent_station": "",
    "stop_url": "",
    "stop_timezone": "Pacific/Auckland"
  },
  {
    "id": 203,
    "stop_id": "6028",
    "stop_code": "6028",
    "stop_name": "Rongotai Road at Troy Street",
    "stop_desc": "RongotaiRd at Troy",
    "zone_id": "3",
    "stop_lat": -41.31886671,
    "stop_lon": 174.8011461,
    "location_type": 0,
    "parent_station": "",
    "stop_url": "",
    "stop_timezone": "Pacific/Auckland"
  },
  {
    "id": 204,
    "stop_id": "9203",
    "stop_code": "9203",
    "stop_name": "Oxford Terrace at Trinity Avenue (near 142)",
    "stop_desc": "OxfordTce at Trinity (142)",
    "zone_id": "5",
    "stop_lat": -41.20437982,
    "stop_lon": 174.9346795,
    "location_type": 0,
    "parent_station": "",
    "stop_url": "",
    "stop_timezone": "Pacific/Auckland"
  },
  {
    "id": 205,
    "stop_id": "1939",
    "stop_code": "1939",
    "stop_name": "Taratahi - SH2 at East Taratahi Road",
    "stop_desc": "Taratahi-SH2 at ETaratahi",
    "zone_id": "13",
    "stop_lat": -40.98158186,
    "stop_lon": 175.5846028,
    "location_type": 0,
    "parent_station": "",
    "stop_url": "",
    "stop_timezone": "Pacific/Auckland"
  },
  {
    "id": 206,
    "stop_id": "5918",
    "stop_code": "5918",
    "stop_name": "Kelburn Normal School - Upland Rd (opposite)",
    "stop_desc": "KelburnNmlSch-UplandRd (opp)",
    "zone_id": "2",
    "stop_lat": -41.28724432,
    "stop_lon": 174.7608686,
    "location_type": 0,
    "parent_station": "",
    "stop_url": "",
    "stop_timezone": "Pacific/Auckland"
  },
  {
    "id": 207,
    "stop_id": "9558",
    "stop_code": "9558",
    "stop_name": "Gibbons Street opposite Flora McCurdy Walk",
    "stop_desc": "GibbonsSt at FMcCurdyWalk",
    "zone_id": "7",
    "stop_lat": -41.11942366,
    "stop_lon": 175.0653459,
    "location_type": 0,
    "parent_station": "",
    "stop_url": "",
    "stop_timezone": "Pacific/Auckland"
  },
  {
    "id": 208,
    "stop_id": "4388",
    "stop_code": "4388",
    "stop_name": "Croydon Street opposite Versailles Street",
    "stop_desc": "CroydonSt opp Versailles",
    "zone_id": "3",
    "stop_lat": -41.29177888,
    "stop_lon": 174.7470178,
    "location_type": 0,
    "parent_station": "",
    "stop_url": "",
    "stop_timezone": "Pacific/Auckland"
  },
  {
    "id": 209,
    "stop_id": "9290",
    "stop_code": "9290",
    "stop_name": "Naenae Road at Vogel Street (near 162)",
    "stop_desc": "NaenaeRd at Vogel (162)",
    "zone_id": "5",
    "stop_lat": -41.20187777,
    "stop_lon": 174.9495132,
    "location_type": 0,
    "parent_station": "",
    "stop_url": "",
    "stop_timezone": "Pacific/Auckland"
  },
  {
    "id": 210,
    "stop_id": "1290",
    "stop_code": "1290",
    "stop_name": "Te Roto Drive at Kapiti Road (near 10)",
    "stop_desc": "TeRotoDr at Kapiti",
    "zone_id": "9",
    "stop_lat": -40.90604781,
    "stop_lon": 174.998378,
    "location_type": 0,
    "parent_station": "",
    "stop_url": "",
    "stop_timezone": "Pacific/Auckland"
  },
  {
    "id": 211,
    "stop_id": "1905",
    "stop_code": "1905",
    "stop_name": "State Highway 53 at No 1 Line",
    "stop_desc": "SH53 at No1Line",
    "zone_id": "12",
    "stop_lat": -41.15025294,
    "stop_lon": 175.3681529,
    "location_type": 0,
    "parent_station": "",
    "stop_url": "",
    "stop_timezone": "Pacific/Auckland"
  },
  {
    "id": 212,
    "stop_id": "3528",
    "stop_code": "3528",
    "stop_name": "Somes Crescent at Dress Circle (near 10)",
    "stop_desc": "SomesCres at DressCir (10)",
    "zone_id": "3",
    "stop_lat": -41.22734655,
    "stop_lon": 174.8301285,
    "location_type": 0,
    "parent_station": "",
    "stop_url": "",
    "stop_timezone": "Pacific/Auckland"
  },
  {
    "id": 213,
    "stop_id": "9575",
    "stop_code": "9575",
    "stop_name": "Fergusson Drive at Fraser Crescent",
    "stop_desc": "FergussonDr at Fraser",
    "zone_id": "7",
    "stop_lat": -41.12514838,
    "stop_lon": 175.0625475,
    "location_type": 0,
    "parent_station": "",
    "stop_url": "",
    "stop_timezone": "Pacific/Auckland"
  },
  {
    "id": 214,
    "stop_id": "7519",
    "stop_code": "7519",
    "stop_name": "Oriental Parade at Carlton Gore Road",
    "stop_desc": "OrientalPde at CarltonGore",
    "zone_id": "1/2",
    "stop_lat": -41.28854238,
    "stop_lon": 174.7992369,
    "location_type": 0,
    "parent_station": "",
    "stop_url": "",
    "stop_timezone": "Pacific/Auckland"
  },
  {
    "id": 215,
    "stop_id": "2590",
    "stop_code": "2590",
    "stop_name": "Tweed Road at Spey Place",
    "stop_desc": "TweedRd at Spey",
    "zone_id": "5",
    "stop_lat": -41.11307432,
    "stop_lon": 174.86624938,
    "location_type": 0,
    "parent_station": "",
    "stop_url": "",
    "stop_timezone": "Pacific/Auckland"
  },
  {
    "id": 216,
    "stop_id": "8021",
    "stop_code": "8021",
    "stop_name": "Waione Street (near 308)",
    "stop_desc": "WaioneSt (308)",
    "zone_id": "4",
    "stop_lat": -41.23217825,
    "stop_lon": 174.8933811,
    "location_type": 0,
    "parent_station": "",
    "stop_url": "",
    "stop_timezone": "Pacific/Auckland"
  },
  {
    "id": 217,
    "stop_id": "7125",
    "stop_code": "7125",
    "stop_name": "Adelaide Road (near 500)",
    "stop_desc": "AdelaideRd (500)",
    "zone_id": "2",
    "stop_lat": -41.3217022,
    "stop_lon": 174.7751778,
    "location_type": 0,
    "parent_station": "",
    "stop_url": "",
    "stop_timezone": "Pacific/Auckland"
  },
  {
    "id": 218,
    "stop_id": "1105",
    "stop_code": "1105",
    "stop_name": "Kapiti Health Centre",
    "stop_desc": "KapitiHealthCtr",
    "zone_id": "9",
    "stop_lat": -40.9103178,
    "stop_lon": 175.00740938,
    "location_type": 0,
    "parent_station": "",
    "stop_url": "",
    "stop_timezone": "Pacific/Auckland"
  },
  {
    "id": 219,
    "stop_id": "NGAI1",
    "stop_code": "NGAI1",
    "stop_name": "Ngaio Station",
    "stop_desc": "NgaioStn",
    "zone_id": "3",
    "stop_lat": -41.25099114,
    "stop_lon": 174.77190448,
    "location_type": 0,
    "parent_station": "NGAI",
    "stop_url": "",
    "stop_timezone": ""
  },
  {
    "id": 220,
    "stop_id": "2152",
    "stop_code": "2152",
    "stop_name": "Warspite Avenue (near 178)",
    "stop_desc": "WarspiteAve (178)",
    "zone_id": "5",
    "stop_lat": -41.13241419,
    "stop_lon": 174.8801442,
    "location_type": 0,
    "parent_station": "",
    "stop_url": "",
    "stop_timezone": "Pacific/Auckland"
  },
  {
    "id": 221,
    "stop_id": "2010",
    "stop_code": "2010",
    "stop_name": "Levin - Te Takere",
    "stop_desc": "Levin-TeTakere",
    "zone_id": "",
    "stop_lat": -40.623161,
    "stop_lon": 175.283933,
    "location_type": 0,
    "parent_station": "",
    "stop_url": "",
    "stop_timezone": "Pacific/Auckland"
  },
  {
    "id": 222,
    "stop_id": "6724",
    "stop_code": "6724",
    "stop_name": "Mills Road at Fortunatus Street",
    "stop_desc": "MillsRd at Fortunatus",
    "zone_id": "2",
    "stop_lat": -41.3121163,
    "stop_lon": 174.765958,
    "location_type": 0,
    "parent_station": "",
    "stop_url": "",
    "stop_timezone": "Pacific/Auckland"
  },
  {
    "id": 223,
    "stop_id": "9047",
    "stop_code": "9047",
    "stop_name": "Hutt Road (near 85)",
    "stop_desc": "HuttRd (85)",
    "zone_id": "4",
    "stop_lat": -41.22001191,
    "stop_lon": 174.8772834,
    "location_type": 0,
    "parent_station": "",
    "stop_url": "",
    "stop_timezone": "Pacific/Auckland"
  },
  {
    "id": 224,
    "stop_id": "7017",
    "stop_code": "7017",
    "stop_name": "Wellington Hospital - Stop B",
    "stop_desc": "WgtnHosp-B",
    "zone_id": "2",
    "stop_lat": -41.30877386,
    "stop_lon": 174.7782912,
    "location_type": 0,
    "parent_station": "",
    "stop_url": "",
    "stop_timezone": "Pacific/Auckland"
  },
  {
    "id": 225,
    "stop_id": "7731",
    "stop_code": "7731",
    "stop_name": "Halifax Street (near 24)",
    "stop_desc": "HalifaxSt (24)",
    "zone_id": "2",
    "stop_lat": -41.32419009,
    "stop_lon": 174.7656866,
    "location_type": 0,
    "parent_station": "",
    "stop_url": "",
    "stop_timezone": "Pacific/Auckland"
  },
  {
    "id": 226,
    "stop_id": "9229",
    "stop_code": "9229",
    "stop_name": "Tennyson Avenue at High Street",
    "stop_desc": "TennysonAve at High",
    "zone_id": "5",
    "stop_lat": -41.19372561,
    "stop_lon": 174.94305187,
    "location_type": 0,
    "parent_station": "",
    "stop_url": "",
    "stop_timezone": "Pacific/Auckland"
  },
  {
    "id": 227,
    "stop_id": "9064",
    "stop_code": "9064",
    "stop_name": "Oakleigh Street at Dowse Drive",
    "stop_desc": "OakleighSt at Dowse",
    "zone_id": "4",
    "stop_lat": -41.20184377,
    "stop_lon": 174.8811765,
    "location_type": 0,
    "parent_station": "",
    "stop_url": "",
    "stop_timezone": "Pacific/Auckland"
  },
  {
    "id": 228,
    "stop_id": "4452",
    "stop_code": "4452",
    "stop_name": "Colway Street (near 44)",
    "stop_desc": "ColwaySt (44)",
    "zone_id": "3",
    "stop_lat": -41.24919411,
    "stop_lon": 174.77853931,
    "location_type": 0,
    "parent_station": "",
    "stop_url": "",
    "stop_timezone": "Pacific/Auckland"
  },
  {
    "id": 229,
    "stop_id": "4360",
    "stop_code": "4360",
    "stop_name": "Collier Avenue (near 20)",
    "stop_desc": "CollierAve (20)",
    "zone_id": "3",
    "stop_lat": -41.28782834,
    "stop_lon": 174.7282833,
    "location_type": 0,
    "parent_station": "",
    "stop_url": "",
    "stop_timezone": "Pacific/Auckland"
  },
  {
    "id": 230,
    "stop_id": "9917",
    "stop_code": "9917",
    "stop_name": "Wood Street at Faulke Avenue",
    "stop_desc": "WoodSt at Faulke",
    "zone_id": "5",
    "stop_lat": -41.27600585,
    "stop_lon": 174.9495689,
    "location_type": 0,
    "parent_station": "",
    "stop_url": "",
    "stop_timezone": "Pacific/Auckland"
  },
  {
    "id": 231,
    "stop_id": "2730",
    "stop_code": "2730",
    "stop_name": "James Cook Drive at Sailmaker Close",
    "stop_desc": "JamesCookDr at Sailmaker",
    "zone_id": "6",
    "stop_lat": -41.11272115,
    "stop_lon": 174.9016113,
    "location_type": 0,
    "parent_station": "",
    "stop_url": "",
    "stop_timezone": "Pacific/Auckland"
  },
  {
    "id": 232,
    "stop_id": "5510",
    "stop_code": "5510",
    "stop_name": "Willis Street at Willbank Court",
    "stop_desc": "WillisSt at WillbankCt",
    "zone_id": "1",
    "stop_lat": -41.28801096,
    "stop_lon": 174.7754582,
    "location_type": 0,
    "parent_station": "",
    "stop_url": "",
    "stop_timezone": "Pacific/Auckland"
  },
  {
    "id": 233,
    "stop_id": "8213",
    "stop_code": "8213",
    "stop_name": "Major Drive at Taieri Crescent (near 84)",
    "stop_desc": "MajorDr at Taieri (84)",
    "zone_id": "5",
    "stop_lat": -41.18310121,
    "stop_lon": 174.9305954,
    "location_type": 0,
    "parent_station": "",
    "stop_url": "",
    "stop_timezone": "Pacific/Auckland"
  },
  {
    "id": 234,
    "stop_id": "5140",
    "stop_code": "5140",
    "stop_name": "Curtis Street opposite Randwick Road (School Stop)",
    "stop_desc": "Curtis opp Randwich (sch)",
    "zone_id": "2",
    "stop_lat": -41.278999,
    "stop_lon": 174.755281,
    "location_type": 0,
    "parent_station": "",
    "stop_url": "",
    "stop_timezone": "Pacific/Auckland"
  },
  {
    "id": 235,
    "stop_id": "7572",
    "stop_code": "7572",
    "stop_name": "Alexandra Road at SPCA",
    "stop_desc": "AlexandraRd at SPCA",
    "zone_id": "2",
    "stop_lat": -41.307091,
    "stop_lon": 174.787932,
    "location_type": 0,
    "parent_station": "",
    "stop_url": "",
    "stop_timezone": "Pacific/Auckland"
  },
  {
    "id": 236,
    "stop_id": "5411",
    "stop_code": "5411",
    "stop_name": "Cockayne Road at Bankot Crescent (near 156)",
    "stop_desc": "CockayneRd at Bankot (156)",
    "zone_id": "3",
    "stop_lat": -41.25213808,
    "stop_lon": 174.7828409,
    "location_type": 0,
    "parent_station": "",
    "stop_url": "",
    "stop_timezone": "Pacific/Auckland"
  },
  {
    "id": 237,
    "stop_id": "8985",
    "stop_code": "8985",
    "stop_name": "Wainuiomata Shopping Centre - Fitzherbert Road",
    "stop_desc": "WainuiomataShoppingCtr - FitzherbertRd",
    "zone_id": "5",
    "stop_lat": -41.26154601,
    "stop_lon": 174.9471094,
    "location_type": 0,
    "parent_station": "",
    "stop_url": "",
    "stop_timezone": "Pacific/Auckland"
  },
  {
    "id": 238,
    "stop_id": "4387",
    "stop_code": "4387",
    "stop_name": "Croydon Street (near 2)",
    "stop_desc": "CroydonSt (2)",
    "zone_id": "3",
    "stop_lat": -41.2905346,
    "stop_lon": 174.74685641,
    "location_type": 0,
    "parent_station": "",
    "stop_url": "",
    "stop_timezone": "Pacific/Auckland"
  },
  {
    "id": 239,
    "stop_id": "2878",
    "stop_code": "2878",
    "stop_name": "Kotuku Street (near 16)",
    "stop_desc": "KotukuSt (16)",
    "zone_id": "5",
    "stop_lat": -41.13258134,
    "stop_lon": 174.82915336,
    "location_type": 0,
    "parent_station": "",
    "stop_url": "",
    "stop_timezone": "Pacific/Auckland"
  },
  {
    "id": 240,
    "stop_id": "7158",
    "stop_code": "7158",
    "stop_name": "Island Bay - Reef Street at Shorland Park",
    "stop_desc": "Island Bay-ReefSt at ShorlandPk",
    "zone_id": "3",
    "stop_lat": -41.34311939,
    "stop_lon": 174.7706202,
    "location_type": 0,
    "parent_station": "",
    "stop_url": "",
    "stop_timezone": "Pacific/Auckland"
  },
  {
    "id": 241,
    "stop_id": "3827",
    "stop_code": "3827",
    "stop_name": "Nalanda Crescent (near 11)",
    "stop_desc": "NalandaCres (11)",
    "zone_id": "3",
    "stop_lat": -41.23442162,
    "stop_lon": 174.79384346,
    "location_type": 0,
    "parent_station": "",
    "stop_url": "",
    "stop_timezone": "Pacific/Auckland"
  },
  {
    "id": 242,
    "stop_id": "5128",
    "stop_code": "5128",
    "stop_name": "Izard Park - Wilton Road (near 41)",
    "stop_desc": "IzardPk-WiltonRd (41)",
    "zone_id": "2",
    "stop_lat": -41.26449927,
    "stop_lon": 174.76432626,
    "location_type": 0,
    "parent_station": "",
    "stop_url": "",
    "stop_timezone": "Pacific/Auckland"
  },
  {
    "id": 243,
    "stop_id": "2547",
    "stop_code": "2547",
    "stop_name": "The Companionway at Discovery Drive (school stop)",
    "stop_desc": "TheCompanionway at Discovery (sch)",
    "zone_id": "6",
    "stop_lat": -41.111852,
    "stop_lon": 174.889744,
    "location_type": 0,
    "parent_station": "",
    "stop_url": "",
    "stop_timezone": "Pacific/Auckland"
  },
  {
    "id": 244,
    "stop_id": "1969",
    "stop_code": "1969",
    "stop_name": "South Road at Millard Avenue",
    "stop_desc": "SouthRd at Millard",
    "zone_id": "14",
    "stop_lat": -40.96297888,
    "stop_lon": 175.6423358,
    "location_type": 0,
    "parent_station": "",
    "stop_url": "",
    "stop_timezone": "Pacific/Auckland"
  },
  {
    "id": 245,
    "stop_id": "1318",
    "stop_code": "1318",
    "stop_name": "Ngaio Road at Matatua Road (near 4)",
    "stop_desc": "NgaioRd at Matatua (4)",
    "zone_id": "9",
    "stop_lat": -40.9117425,
    "stop_lon": 174.9815703,
    "location_type": 0,
    "parent_station": "",
    "stop_url": "",
    "stop_timezone": "Pacific/Auckland"
  },
  {
    "id": 246,
    "stop_id": "6153",
    "stop_code": "6153",
    "stop_name": "Owhiro Bay - Happy Valley Road (near 4)",
    "stop_desc": "OwhiroBay-HappyVlyRd (4)",
    "zone_id": "3",
    "stop_lat": -41.34410014,
    "stop_lon": 174.7595314,
    "location_type": 0,
    "parent_station": "",
    "stop_url": "",
    "stop_timezone": "Pacific/Auckland"
  },
  {
    "id": 247,
    "stop_id": "WAIK",
    "stop_code": "WAIK",
    "stop_name": "Waikanae Station",
    "stop_desc": "WaikanaeStn",
    "zone_id": "10",
    "stop_lat": -40.87658706,
    "stop_lon": 175.06621317,
    "location_type": 0,
    "parent_station": "",
    "stop_url": "",
    "stop_timezone": "Pacific/Auckland"
  },
  {
    "id": 248,
    "stop_id": "TAIT2",
    "stop_code": "TAIT2",
    "stop_name": "Taita Station",
    "stop_desc": "TaitaStn",
    "zone_id": "5",
    "stop_lat": -41.18031902,
    "stop_lon": 174.96066803,
    "location_type": 0,
    "parent_station": "TAIT",
    "stop_url": "",
    "stop_timezone": ""
  },
  {
    "id": 249,
    "stop_id": "8351",
    "stop_code": "8351",
    "stop_name": "Park Hill Reserve",
    "stop_desc": "ParkHillRes",
    "zone_id": "5",
    "stop_lat": -41.18782966,
    "stop_lon": 174.9171417,
    "location_type": 0,
    "parent_station": "",
    "stop_url": "",
    "stop_timezone": "Pacific/Auckland"
  },
  {
    "id": 250,
    "stop_id": "MATA",
    "stop_code": "MATA",
    "stop_name": "Matarawa Station",
    "stop_desc": "MatarawaStn",
    "zone_id": "13",
    "stop_lat": -41.04880879,
    "stop_lon": 175.44873607,
    "location_type": 0,
    "parent_station": "",
    "stop_url": "",
    "stop_timezone": "Pacific/Auckland"
  },
  {
    "id": 251,
    "stop_id": "7569",
    "stop_code": "7569",
    "stop_name": "Alexandra Road at Lookout Road",
    "stop_desc": "AlexandraRd at Lookout",
    "zone_id": "2",
    "stop_lat": -41.29575997,
    "stop_lon": 174.7984798,
    "location_type": 0,
    "parent_station": "",
    "stop_url": "",
    "stop_timezone": "Pacific/Auckland"
  },
  {
    "id": 252,
    "stop_id": "1230",
    "stop_code": "1230",
    "stop_name": "Gray Avenue at Callender Terrace (near 33)",
    "stop_desc": "GrayAve at Callender (33)",
    "zone_id": "9",
    "stop_lat": -40.89226137,
    "stop_lon": 174.9934523,
    "location_type": 0,
    "parent_station": "",
    "stop_url": "",
    "stop_timezone": "Pacific/Auckland"
  },
  {
    "id": 253,
    "stop_id": "7553",
    "stop_code": "7553",
    "stop_name": "St Patrick's College - Evans Bay Parade (opposite)",
    "stop_desc": "StPatrick'sColl-EvansBayPde (opp)",
    "zone_id": "2/3",
    "stop_lat": -41.31426519,
    "stop_lon": 174.79528942,
    "location_type": 0,
    "parent_station": "",
    "stop_url": "",
    "stop_timezone": "Pacific/Auckland"
  },
  {
    "id": 254,
    "stop_id": "3002",
    "stop_code": "3002",
    "stop_name": "Johnsonville Road (Opposite Shopping Centre)",
    "stop_desc": "JohnsonvilleRd (OppShoppingCntr)",
    "zone_id": "3",
    "stop_lat": -41.22377449,
    "stop_lon": 174.80738266,
    "location_type": 0,
    "parent_station": "",
    "stop_url": "",
    "stop_timezone": "Pacific/Auckland"
  },
  {
    "id": 255,
    "stop_id": "WELL",
    "stop_code": "WELL",
    "stop_name": "Wellington Station",
    "stop_desc": "WgtnStn",
    "zone_id": "1",
    "stop_lat": -41.27896857,
    "stop_lon": 174.78056172,
    "location_type": 0,
    "parent_station": "",
    "stop_url": "",
    "stop_timezone": "Pacific/Auckland"
  },
  {
    "id": 256,
    "stop_id": "7271",
    "stop_code": "7271",
    "stop_name": "Awa Road at Totara Road",
    "stop_desc": "AwaRd at Totara",
    "zone_id": "3",
    "stop_lat": -41.3121105,
    "stop_lon": 174.82551846,
    "location_type": 0,
    "parent_station": "",
    "stop_url": "",
    "stop_timezone": "Pacific/Auckland"
  },
  {
    "id": 257,
    "stop_id": "9303",
    "stop_code": "9303",
    "stop_name": "Holborn Drive at Stokes Valley Road (near 3)",
    "stop_desc": "HolbornDr at StokesVly (3)",
    "zone_id": "6",
    "stop_lat": -41.16414716,
    "stop_lon": 174.98343804,
    "location_type": 0,
    "parent_station": "",
    "stop_url": "",
    "stop_timezone": "Pacific/Auckland"
  },
  {
    "id": 258,
    "stop_id": "8111",
    "stop_code": "8111",
    "stop_name": "Victoria Street at Alice Street (near 46)",
    "stop_desc": "VictoriaSt at Alice (46)",
    "zone_id": "4",
    "stop_lat": -41.21511184,
    "stop_lon": 174.89302016,
    "location_type": 0,
    "parent_station": "",
    "stop_url": "",
    "stop_timezone": "Pacific/Auckland"
  },
  {
    "id": 259,
    "stop_id": "9054",
    "stop_code": "9054",
    "stop_name": "Dowse Drive at Bushey Way",
    "stop_desc": "DowseDr at Bushey",
    "zone_id": "4",
    "stop_lat": -41.21213062,
    "stop_lon": 174.8800399,
    "location_type": 0,
    "parent_station": "",
    "stop_url": "",
    "stop_timezone": "Pacific/Auckland"
  },
  {
    "id": 260,
    "stop_id": "9070",
    "stop_code": "9070",
    "stop_name": "Pekanga Road at Taka Grove",
    "stop_desc": "PekangaRd at Taka",
    "zone_id": "4",
    "stop_lat": -41.20448631,
    "stop_lon": 174.8903163,
    "location_type": 0,
    "parent_station": "",
    "stop_url": "",
    "stop_timezone": "Pacific/Auckland"
  },
  {
    "id": 261,
    "stop_id": "3254",
    "stop_code": "3254",
    "stop_name": "Centennial Highway at Glover Street",
    "stop_desc": "CentennialHwy at Glover",
    "zone_id": "3",
    "stop_lat": -41.24256197,
    "stop_lon": 174.8134883,
    "location_type": 0,
    "parent_station": "",
    "stop_url": "",
    "stop_timezone": "Pacific/Auckland"
  },
  {
    "id": 262,
    "stop_id": "1374",
    "stop_code": "1374",
    "stop_name": "Alexander Road (near 16)",
    "stop_desc": "AlexanderRd (16)",
    "zone_id": "9",
    "stop_lat": -40.91686807,
    "stop_lon": 174.9820797,
    "location_type": 0,
    "parent_station": "",
    "stop_url": "",
    "stop_timezone": "Pacific/Auckland"
  },
  {
    "id": 263,
    "stop_id": "1306",
    "stop_code": "1306",
    "stop_name": "Raumati Road at Matai Road (near 68)",
    "stop_desc": "RaumatiRd at Matai (68)",
    "zone_id": "9",
    "stop_lat": -40.92133895,
    "stop_lon": 174.9892197,
    "location_type": 0,
    "parent_station": "",
    "stop_url": "",
    "stop_timezone": "Pacific/Auckland"
  },
  {
    "id": 264,
    "stop_id": "2558",
    "stop_code": "2558",
    "stop_name": "Leeward Drive at Bosun Terrace (near 25)",
    "stop_desc": "LeewardDr at Bosun (25)",
    "zone_id": "6",
    "stop_lat": -41.10689482,
    "stop_lon": 174.88651561,
    "location_type": 0,
    "parent_station": "",
    "stop_url": "",
    "stop_timezone": "Pacific/Auckland"
  },
  {
    "id": 265,
    "stop_id": "5391",
    "stop_code": "5391",
    "stop_name": "Campbell Street (near 106)",
    "stop_desc": "CampbellSt (106)",
    "zone_id": "3",
    "stop_lat": -41.29157574,
    "stop_lon": 174.7425937,
    "location_type": 0,
    "parent_station": "",
    "stop_url": "",
    "stop_timezone": "Pacific/Auckland"
  },
  {
    "id": 266,
    "stop_id": "8147",
    "stop_code": "8147",
    "stop_name": "Waiwhetu - Wainui Road (near 50)",
    "stop_desc": "Waiwhetu-WainuiRd (50)",
    "zone_id": "4",
    "stop_lat": -41.22836834,
    "stop_lon": 174.9167748,
    "location_type": 0,
    "parent_station": "",
    "stop_url": "",
    "stop_timezone": "Pacific/Auckland"
  },
  {
    "id": 267,
    "stop_id": "6160",
    "stop_code": "6160",
    "stop_name": "The Esplanade (near 230)",
    "stop_desc": "Esplanade (230)",
    "zone_id": "3",
    "stop_lat": -41.34368704,
    "stop_lon": 174.7746992,
    "location_type": 0,
    "parent_station": "",
    "stop_url": "",
    "stop_timezone": "Pacific/Auckland"
  },
  {
    "id": 268,
    "stop_id": "8070",
    "stop_code": "8070",
    "stop_name": "Pekanga Road at Pokohiwi Road",
    "stop_desc": "PekangaSt at Pokohiwi",
    "zone_id": "4",
    "stop_lat": -41.20503628,
    "stop_lon": 174.8897358,
    "location_type": 0,
    "parent_station": "",
    "stop_url": "",
    "stop_timezone": "Pacific/Auckland"
  },
  {
    "id": 269,
    "stop_id": "5028",
    "stop_code": "5028",
    "stop_name": "Kaiwharawhara - Fore Street",
    "stop_desc": "Kaiwharawhara-ForeSt",
    "zone_id": "2",
    "stop_lat": -41.25940794,
    "stop_lon": 174.79032,
    "location_type": 0,
    "parent_station": "",
    "stop_url": "",
    "stop_timezone": "Pacific/Auckland"
  },
  {
    "id": 270,
    "stop_id": "6021",
    "stop_code": "6021",
    "stop_name": "Constable Street at Owen Street (near 77)",
    "stop_desc": "ConstableSt at Owen (77)",
    "zone_id": "2",
    "stop_lat": -41.31300862,
    "stop_lon": 174.7840211,
    "location_type": 0,
    "parent_station": "",
    "stop_url": "",
    "stop_timezone": "Pacific/Auckland"
  },
  {
    "id": 271,
    "stop_id": "7274",
    "stop_code": "7274",
    "stop_name": "Para Street opposite Holy Cross School",
    "stop_desc": "ParaSt opp HolyCrossSch",
    "zone_id": "3",
    "stop_lat": -41.316936,
    "stop_lon": 174.819422,
    "location_type": 0,
    "parent_station": "",
    "stop_url": "",
    "stop_timezone": "Pacific/Auckland"
  },
  {
    "id": 272,
    "stop_id": "1898",
    "stop_code": "1898",
    "stop_name": "Upper Plain Road - Western Plains Plaza",
    "stop_desc": "UpperPlainRd-WPlainsPlaza",
    "zone_id": "14",
    "stop_lat": -40.94257009,
    "stop_lon": 175.6328505,
    "location_type": 0,
    "parent_station": "",
    "stop_url": "",
    "stop_timezone": "Pacific/Auckland"
  },
  {
    "id": 273,
    "stop_id": "3705",
    "stop_code": "3705",
    "stop_name": "Woodridge Drive at Cedarwood Street",
    "stop_desc": "WoodridgeDr at Cedarwood",
    "zone_id": "3",
    "stop_lat": -41.21766941,
    "stop_lon": 174.8326023,
    "location_type": 0,
    "parent_station": "",
    "stop_url": "",
    "stop_timezone": "Pacific/Auckland"
  },
  {
    "id": 274,
    "stop_id": "WOOD",
    "stop_code": "WOOD",
    "stop_name": "Woodside Station",
    "stop_desc": "WoodsideStn",
    "zone_id": "12",
    "stop_lat": -41.06736154,
    "stop_lon": 175.40189781,
    "location_type": 0,
    "parent_station": "",
    "stop_url": "",
    "stop_timezone": "Pacific/Auckland"
  },
  {
    "id": 275,
    "stop_id": "5317",
    "stop_code": "5317",
    "stop_name": "Glenmore Street (near 177)",
    "stop_desc": "GlenmoreSt (177)",
    "zone_id": "2",
    "stop_lat": -41.28783015,
    "stop_lon": 174.7578989,
    "location_type": 0,
    "parent_station": "",
    "stop_url": "",
    "stop_timezone": "Pacific/Auckland"
  },
  {
    "id": 276,
    "stop_id": "0001",
    "stop_code": "0001",
    "stop_name": "Fare Zone Boundary 12/13 - Ruamahanga River Bridge (SH53)",
    "stop_desc": "Fare Zone Boundary 12/13",
    "zone_id": "12/13",
    "stop_lat": -41.19730779,
    "stop_lon": 175.43980893,
    "location_type": 0,
    "parent_station": "",
    "stop_url": "",
    "stop_timezone": "Pacific/Auckland"
  },
  {
    "id": 277,
    "stop_id": "6050",
    "stop_code": "6050",
    "stop_name": "Breaker Bay Road at Reef Bay",
    "stop_desc": "BreakerBayRd at Reef",
    "zone_id": "3",
    "stop_lat": -41.33975864,
    "stop_lon": 174.8243096,
    "location_type": 0,
    "parent_station": "",
    "stop_url": "",
    "stop_timezone": "Pacific/Auckland"
  },
  {
    "id": 278,
    "stop_id": "7137",
    "stop_code": "7137",
    "stop_name": "Severn Street at Moselle Street (school stop)",
    "stop_desc": "SevernSt at Moselle (sch)",
    "zone_id": "3",
    "stop_lat": -41.34082259,
    "stop_lon": 174.7676896,
    "location_type": 0,
    "parent_station": "",
    "stop_url": "",
    "stop_timezone": "Pacific/Auckland"
  },
  {
    "id": 279,
    "stop_id": "9004",
    "stop_code": "9004",
    "stop_name": "Jackson Street at Sydney Street",
    "stop_desc": "JacksonSt at Sydney",
    "zone_id": "4",
    "stop_lat": -41.22445062,
    "stop_lon": 174.8757401,
    "location_type": 0,
    "parent_station": "",
    "stop_url": "",
    "stop_timezone": "Pacific/Auckland"
  },
  {
    "id": 280,
    "stop_id": "1194",
    "stop_code": "1194",
    "stop_name": "Kapiti Road at Moana Road",
    "stop_desc": "KapitiRd at Moana",
    "zone_id": "9",
    "stop_lat": -40.91305706,
    "stop_lon": 175.004526,
    "location_type": 0,
    "parent_station": "",
    "stop_url": "",
    "stop_timezone": "Pacific/Auckland"
  },
  {
    "id": 281,
    "stop_id": "8463",
    "stop_code": "8463",
    "stop_name": "Fergusson Drive at Stream Grove",
    "stop_desc": "FergussonDr at Stream",
    "zone_id": "6",
    "stop_lat": -41.14571724,
    "stop_lon": 175.0149338,
    "location_type": 0,
    "parent_station": "",
    "stop_url": "",
    "stop_timezone": "Pacific/Auckland"
  },